$GPRMC,225838,A,3254.2591,N,11712.0702,W,0.0,259.9,030602,13.0,E,A*33
$GPGGA,225838,3254.2591,N,11712.0702,W,1,08,1.3,93.0,M,-32.9,M,,*4D
$GPRMC,225840,A,3254.2591,N,11712.0703,W,0.0,259.9,030602,13.0,E,A*3D
$GPGGA,225840,3254.2591,N,11712.0703,W,1,08,1.3,92.9,M,-32.9,M,,*4B
$GPRMC,225842,A,3254.2593,N,11712.0714,W,2.0,258.3,030602,13.0,E,A*32
$GPGGA,225842,3254.2593,N,11712.0714,W,1,08,1.5,91.7,M,-32.9,M,,*46
$GPRMC,225844,A,3254.2591,N,11712.0729,W,3.1,250.4,030602,13.0,E,A*37
$GPGGA,225844,3254.2591,N,11712.0729,W,1,08,1.2,91.3,M,-32.9,M,,*4F
$GPRMC,225846,A,3254.2565,N,11712.0754,W,8.6,214.6,030602,13.0,E,A*3A
$GPGGA,225846,3254.2565,N,11712.0754,W,1,08,1.7,91.1,M,-32.9,M,,*4B
$GPRMC,225848,A,3254.2527,N,11712.0770,W,4.7,197.0,030602,13.0,E,A*37
$GPGGA,225848,3254.2527,N,11712.0770,W,1,08,1.0,91.5,M,-32.9,M,,*46
$GPRMC,225850,A,3254.2511,N,11712.0775,W,2.9,188.6,030602,13.0,E,A*3E
$GPGGA,225850,3254.2511,N,11712.0775,W,1,08,1.1,91.5,M,-32.9,M,,*4E
$GPRMC,225852,A,3254.2492,N,11712.0778,W,6.3,166.5,030602,13.0,E,A*36
$GPGGA,225852,3254.2492,N,11712.0778,W,1,08,0.9,91.5,M,-32.9,M,,*42
$GPRMC,225854,A,3254.2452,N,11712.0729,W,11.3,122.8,030602,13.0,E,A*03
$GPGGA,225854,3254.2452,N,11712.0729,W,1,08,1.1,92.0,M,-32.9,M,,*43
$GPRMC,225856,A,3254.2437,N,11712.0622,W,18.1,93.8,030602,13.0,E,A*38
$GPGGA,225856,3254.2437,N,11712.0622,W,1,08,1.2,92.9,M,-32.9,M,,*42
$GPRMC,225858,A,3254.2430,N,11712.0476,W,23.3,94.1,030602,13.0,E,A*36
$GPGGA,225858,3254.2430,N,11712.0476,W,1,08,1.5,94.3,M,-32.9,M,,*43
$GPRMC,225900,A,3254.2407,N,11712.0320,W,24.4,103.3,030602,13.0,E,A*07
$GPGGA,225900,3254.2407,N,11712.0320,W,1,08,1.1,95.4,M,-32.9,M,,*4D
$GPRMC,225902,A,3254.2358,N,11712.0167,W,25.1,112.6,030602,13.0,E,A*08
$GPGGA,225902,3254.2358,N,11712.0167,W,1,08,1.3,96.6,M,-32.9,M,,*40
$GPRMC,225904,A,3254.2281,N,11712.0014,W,27.3,122.6,030602,13.0,E,A*0D
$GPGGA,225904,3254.2281,N,11712.0014,W,1,08,1.3,97.9,M,-32.9,M,,*48
$GPRMC,225906,A,3254.2190,N,11711.9869,W,26.8,127.0,030602,13.0,E,A*0D
$GPGGA,225906,3254.2190,N,11711.9869,W,1,08,1.3,98.9,M,-32.9,M,,*4E
$GPRMC,225908,A,3254.2107,N,11711.9740,W,23.5,126.9,030602,13.0,E,A*09
$GPGGA,225908,3254.2107,N,11711.9740,W,1,08,1.3,99.3,M,-32.9,M,,*41
$GPRMC,225910,A,3254.2038,N,11711.9630,W,19.5,126.5,030602,13.0,E,A*0E
$GPGGA,225910,3254.2038,N,11711.9630,W,1,08,1.9,99.1,M,-32.9,M,,*4B
$GPRMC,225912,A,3254.1986,N,11711.9550,W,13.4,128.2,030602,13.0,E,A*04
$GPGGA,225912,3254.1986,N,11711.9550,W,1,08,1.9,98.5,M,-32.9,M,,*46
$GPRMC,225914,A,3254.1956,N,11711.9512,W,6.0,135.0,030602,13.0,E,A*37
$GPGGA,225914,3254.1956,N,11711.9512,W,1,08,1.1,98.3,M,-32.9,M,,*45
$GPRMC,225916,A,3254.1915,N,11711.9498,W,9.0,173.6,030602,13.0,E,A*3A
$GPGGA,225916,3254.1915,N,11711.9498,W,1,08,1.2,98.0,M,-32.9,M,,*43
$GPRMC,225918,A,3254.1839,N,11711.9525,W,16.3,200.6,030602,13.0,E,A*06
$GPGGA,225918,3254.1839,N,11711.9525,W,1,08,1.2,97.6,M,-32.9,M,,*4C
$GPRMC,225920,A,3254.1728,N,11711.9588,W,23.9,205.3,030602,13.0,E,A*09
$GPGGA,225920,3254.1728,N,11711.9588,W,1,08,1.3,97.5,M,-32.9,M,,*4D
$GPRMC,225922,A,3254.1588,N,11711.9657,W,27.7,201.1,030602,13.0,E,A*0E
$GPGGA,225922,3254.1588,N,11711.9657,W,1,08,1.2,97.4,M,-32.9,M,,*46
$GPRMC,225924,A,3254.1450,N,11711.9710,W,25.4,197.0,030602,13.0,E,A*02
$GPGGA,225924,3254.1450,N,11711.9710,W,1,08,1.2,97.8,M,-32.9,M,,*4A
$GPRMC,225926,A,3254.1331,N,11711.9741,W,20.2,190.5,030602,13.0,E,A*05
$GPGGA,225926,3254.1331,N,11711.9741,W,1,08,1.2,98.0,M,-32.9,M,,*4B
$GPRMC,225928,A,3254.1238,N,11711.9756,W,13.8,189.7,030602,13.0,E,A*05
$GPGGA,225928,3254.1238,N,11711.9756,W,1,08,0.9,98.1,M,-32.9,M,,*40
$GPRMC,225930,A,3254.1184,N,11711.9805,W,12.3,229.2,030602,13.0,E,A*07
$GPGGA,225930,3254.1184,N,11711.9805,W,1,08,1.0,98.1,M,-32.9,M,,*4C
$GPRMC,225932,A,3254.1166,N,11711.9904,W,17.0,262.2,030602,13.0,E,A*00
$GPGGA,225932,3254.1166,N,11711.9904,W,1,08,1.1,98.0,M,-32.9,M,,*42
$GPRMC,225934,A,3254.1164,N,11712.0048,W,23.4,270.0,030602,13.0,E,A*0D
$GPGGA,225934,3254.1164,N,11712.0048,W,1,08,1.3,98.0,M,-32.9,M,,*4F
$GPRMC,225936,A,3254.1165,N,11712.0225,W,27.7,269.8,030602,13.0,E,A*00
$GPGGA,225936,3254.1165,N,11712.0225,W,1,08,1.3,97.8,M,-32.9,M,,*42
$GPRMC,225938,A,3254.1164,N,11712.0428,W,31.6,269.3,030602,13.0,E,A*09
$GPGGA,225938,3254.1164,N,11712.0428,W,1,07,1.2,97.3,M,-32.9,M,,*43
$GPRMC,225940,A,3254.1158,N,11712.0650,W,34.4,267.7,030602,13.0,E,A*09
$GPGGA,225940,3254.1158,N,11712.0650,W,1,07,1.2,96.6,M,-32.9,M,,*4A
$GPRMC,225942,A,3254.1138,N,11712.0887,W,36.7,262.5,030602,13.0,E,A*0F
$GPGGA,225942,3254.1138,N,11712.0887,W,1,07,1.2,95.2,M,-32.9,M,,*4D
$GPRMC,225944,A,3254.1094,N,11712.1133,W,38.5,256.4,030602,13.0,E,A*03
$GPGGA,225944,3254.1094,N,11712.1133,W,1,07,1.2,93.0,M,-32.9,M,,*4F
$GPRMC,225946,A,3254.1025,N,11712.1382,W,40.2,250.1,030602,13.0,E,A*08
$GPGGA,225946,3254.1025,N,11712.1382,W,1,07,1.2,90.3,M,-32.9,M,,*4F
$GPRMC,225948,A,3254.0946,N,11712.1637,W,41.4,249.8,030602,13.0,E,A*06
$GPGGA,225948,3254.0946,N,11712.1637,W,1,07,1.3,87.5,M,-32.9,M,,*46
$GPRMC,225950,A,3254.0869,N,11712.1897,W,41.8,251.0,030602,13.0,E,A*0A
$GPGGA,225950,3254.0869,N,11712.1897,W,1,07,1.4,85.5,M,-32.9,M,,*42
$GPRMC,225952,A,3254.0797,N,11712.2159,W,41.6,252.1,030602,13.0,E,A*02
$GPGGA,225952,3254.0797,N,11712.2159,W,1,07,1.5,83.9,M,-32.9,M,,*4D
$GPRMC,225954,A,3254.0742,N,11712.2419,W,40.5,257.2,030602,13.0,E,A*09
$GPGGA,225954,3254.0742,N,11712.2419,W,1,07,1.5,83.4,M,-32.9,M,,*4F
$GPRMC,225956,A,3254.0707,N,11712.2681,W,40.2,261.8,030602,13.0,E,A*01
$GPGGA,225956,3254.0707,N,11712.2681,W,1,07,1.2,83.0,M,-32.9,M,,*4C
$GPRMC,225958,A,3254.0676,N,11712.2944,W,40.3,261.4,030602,13.0,E,A*03
$GPGGA,225958,3254.0676,N,11712.2944,W,1,07,1.2,82.3,M,-32.9,M,,*41
$GPRMC,230000,A,3254.0638,N,11712.3208,W,40.7,260.2,030602,13.0,E,A*08
$GPGGA,230000,3254.0638,N,11712.3208,W,1,07,1.2,81.1,M,-32.9,M,,*48
$GPRMC,230002,A,3254.0599,N,11712.3473,W,40.6,260.2,030602,13.0,E,A*09
$GPGGA,230002,3254.0599,N,11712.3473,W,1,07,1.2,80.8,M,-32.9,M,,*40
$GPRMC,230004,A,3254.0567,N,11712.3730,W,39.1,261.3,030602,13.0,E,A*03
$GPGGA,230004,3254.0567,N,11712.3730,W,1,07,1.7,80.7,M,-32.9,M,,*49
$GPRMC,230006,A,3254.0534,N,11712.3980,W,31.4,261.3,030602,13.0,E,A*0F
$GPGGA,230006,3254.0534,N,11712.3980,W,1,07,1.3,81.0,M,-32.9,M,,*4A
$GPRMC,230008,A,3254.0515,N,11712.4171,W,25.8,257.4,030602,13.0,E,A*08
$GPGGA,230008,3254.0515,N,11712.4171,W,1,07,1.3,82.0,M,-32.9,M,,*45
$GPRMC,230010,A,3254.0485,N,11712.4309,W,20.2,258.6,030602,13.0,E,A*06
$GPGGA,230010,3254.0485,N,11712.4309,W,1,07,1.9,84.0,M,-32.9,M,,*45
$GPRMC,230012,A,3254.0468,N,11712.4431,W,17.4,264.2,030602,13.0,E,A*02
$GPGGA,230012,3254.0468,N,11712.4431,W,1,07,1.3,85.4,M,-32.9,M,,*47
$GPRMC,230014,A,3254.0452,N,11712.4546,W,19.0,259.7,030602,13.0,E,A*0D
$GPGGA,230014,3254.0452,N,11712.4546,W,1,07,1.3,86.6,M,-32.9,M,,*48
$GPRMC,230016,A,3254.0430,N,11712.4683,W,22.7,259.4,030602,13.0,E,A*0D
$GPGGA,230016,3254.0430,N,11712.4683,W,1,07,1.3,87.9,M,-32.9,M,,*4A
$GPRMC,230018,A,3254.0406,N,11712.4844,W,26.1,260.6,030602,13.0,E,A*09
$GPGGA,230018,3254.0406,N,11712.4844,W,1,07,1.3,89.3,M,-32.9,M,,*40
$GPRMC,230020,A,3254.0381,N,11712.5021,W,28.0,261.2,030602,13.0,E,A*0A
$GPGGA,230020,3254.0381,N,11712.5021,W,1,07,1.3,90.5,M,-32.9,M,,*47
$GPRMC,230022,A,3254.0356,N,11712.5199,W,27.4,260.9,030602,13.0,E,A*01
$GPGGA,230022,3254.0356,N,11712.5199,W,1,07,1.2,91.3,M,-32.9,M,,*4B
$GPRMC,230024,A,3254.0335,N,11712.5368,W,25.7,263.2,030602,13.0,E,A*07
$GPGGA,230024,3254.0335,N,11712.5368,W,1,07,1.2,91.8,M,-32.9,M,,*4F
$GPRMC,230026,A,3254.0330,N,11712.5529,W,25.1,269.8,030602,13.0,E,A*05
$GPGGA,230026,3254.0330,N,11712.5529,W,1,07,1.2,92.1,M,-32.9,M,,*41
$GPRMC,230028,A,3254.0341,N,11712.5714,W,29.6,275.8,030602,13.0,E,A*07
$GPGGA,230028,3254.0341,N,11712.5714,W,1,07,1.4,92.0,M,-32.9,M,,*42
$GPRMC,230030,A,3254.0378,N,11712.5921,W,33.0,284.0,030602,13.0,E,A*07
$GPGGA,230030,3254.0378,N,11712.5921,W,1,07,1.5,91.6,M,-32.9,M,,*4D
$GPRMC,230032,A,3254.0440,N,11712.6128,W,34.1,292.0,030602,13.0,E,A*0A
$GPGGA,230032,3254.0440,N,11712.6128,W,1,07,1.5,91.1,M,-32.9,M,,*46
$GPRMC,230034,A,3254.0536,N,11712.6323,W,34.9,302.9,030602,13.0,E,A*0C
$GPGGA,230034,3254.0536,N,11712.6323,W,1,07,1.5,90.1,M,-32.9,M,,*48
$GPRMC,230036,A,3254.0649,N,11712.6517,W,36.4,304.6,030602,13.0,E,A*02
$GPGGA,230036,3254.0649,N,11712.6517,W,1,07,1.6,88.7,M,-32.9,M,,*4C
$GPRMC,230038,A,3254.0762,N,11712.6714,W,37.2,303.2,030602,13.0,E,A*01
$GPGGA,230038,3254.0762,N,11712.6714,W,1,07,1.6,87.3,M,-32.9,M,,*40
$GPRMC,230040,A,3254.0874,N,11712.6919,W,37.8,301.2,030602,13.0,E,A*0D
$GPGGA,230040,3254.0874,N,11712.6919,W,1,07,1.8,86.2,M,-32.9,M,,*4A
$GPRMC,230042,A,3254.0977,N,11712.7136,W,39.7,289.7,030602,13.0,E,A*0C
$GPGGA,230042,3254.0977,N,11712.7136,W,1,06,1.8,85.2,M,-32.9,M,,*4C
$GPRMC,230044,A,3254.1040,N,11712.7387,W,40.3,281.3,030602,13.0,E,A*08
$GPGGA,230044,3254.1040,N,11712.7387,W,1,06,1.8,83.7,M,-32.9,M,,*4D
$GPRMC,230046,A,3254.1075,N,11712.7654,W,41.8,270.7,030602,13.0,E,A*07
$GPGGA,230046,3254.1075,N,11712.7654,W,1,07,1.3,81.7,M,-32.9,M,,*4A
$GPRMC,230048,A,3254.1070,N,11712.7933,W,42.6,265.5,030602,13.0,E,A*09
$GPGGA,230048,3254.1070,N,11712.7933,W,1,06,1.3,79.3,M,-32.9,M,,*4D
$GPRMC,230050,A,3254.1048,N,11712.8216,W,42.7,264.8,030602,13.0,E,A*05
$GPGGA,230050,3254.1048,N,11712.8216,W,1,06,1.5,77.1,M,-32.9,M,,*46
$GPRMC,230052,A,3254.0999,N,11712.8478,W,40.2,256.9,030602,13.0,E,A*0A
$GPGGA,230052,3254.0999,N,11712.8478,W,1,06,1.9,74.9,M,-32.9,M,,*49
$GPRMC,230054,A,3254.0938,N,11712.8748,W,41.9,253.1,030602,13.0,E,A*00
$GPGGA,230054,3254.0938,N,11712.8748,W,1,06,1.9,69.9,M,-32.9,M,,*48
$GPRMC,230056,A,3254.0853,N,11712.9008,W,41.9,241.7,030602,13.0,E,A*09
$GPGGA,230056,3254.0853,N,11712.9008,W,1,06,1.8,65.7,M,-32.9,M,,*47
$GPRMC,230058,A,3254.0722,N,11712.9237,W,40.8,232.2,030602,13.0,E,A*01
$GPGGA,230058,3254.0722,N,11712.9237,W,1,06,1.9,62.7,M,-32.9,M,,*48
$GPRMC,230100,A,3254.0572,N,11712.9444,W,41.4,227.7,030602,13.0,E,A*04
$GPGGA,230100,3254.0572,N,11712.9444,W,1,06,2.0,61.1,M,-32.9,M,,*4E
$GPRMC,230102,A,3254.0388,N,11712.9613,W,41.7,210.2,030602,13.0,E,A*07
$GPGGA,230102,3254.0388,N,11712.9613,W,1,06,2.2,59.8,M,-32.9,M,,*4F
$GPRMC,230104,A,3254.0174,N,11712.9732,W,41.5,204.2,030602,13.0,E,A*05
$GPGGA,230104,3254.0174,N,11712.9732,W,1,07,2.2,58.2,M,-32.9,M,,*40
$GPRMC,230106,A,3253.9956,N,11712.9840,W,41.7,203.4,030602,13.0,E,A*08
$GPGGA,230106,3253.9956,N,11712.9840,W,1,07,2.2,57.2,M,-32.9,M,,*41
$GPRMC,230108,A,3253.9746,N,11712.9952,W,40.0,205.3,030602,13.0,E,A*0C
$GPGGA,230108,3253.9746,N,11712.9952,W,1,07,2.1,56.1,M,-32.9,M,,*43
$GPRMC,230110,A,3253.9566,N,11713.0083,W,36.3,212.8,030602,13.0,E,A*07
$GPGGA,230110,3253.9566,N,11713.0083,W,1,07,2.2,54.1,M,-32.9,M,,*46
$GPRMC,230112,A,3253.9432,N,11713.0222,W,29.8,224.4,030602,13.0,E,A*00
$GPGGA,230112,3253.9432,N,11713.0222,W,1,07,1.7,51.8,M,-32.9,M,,*47
$GPRMC,230114,A,3253.9342,N,11713.0343,W,21.6,229.2,030602,13.0,E,A*0D
$GPGGA,230114,3253.9342,N,11713.0343,W,1,07,1.2,49.8,M,-32.9,M,,*4B
$GPRMC,230116,A,3253.9292,N,11713.0415,W,11.0,232.0,030602,13.0,E,A*0A
$GPGGA,230116,3253.9292,N,11713.0415,W,1,07,1.2,48.3,M,-32.9,M,,*4B
$GPRMC,230118,A,3253.9277,N,11713.0448,W,4.1,249.7,030602,13.0,E,A*39
$GPGGA,230118,3253.9277,N,11713.0448,W,1,07,1.3,46.9,M,-32.9,M,,*43
$GPRMC,230120,A,3253.9274,N,11713.0457,W,0.0,256.9,030602,13.0,E,A*3A
$GPGGA,230120,3253.9274,N,11713.0457,W,1,07,1.4,46.2,M,-32.9,M,,*49
$GPRMC,230122,A,3253.9272,N,11713.0464,W,0.7,257.8,030602,13.0,E,A*39
$GPGGA,230122,3253.9272,N,11713.0464,W,1,07,1.4,45.4,M,-32.9,M,,*48
$GPRMC,230124,A,3253.9272,N,11713.0492,W,5.3,277.0,030602,13.0,E,A*3D
$GPGGA,230124,3253.9272,N,11713.0492,W,1,07,1.5,44.4,M,-32.9,M,,*47
$GPRMC,230126,A,3253.9313,N,11713.0551,W,14.0,316.3,030602,13.0,E,A*01
$GPGGA,230126,3253.9313,N,11713.0551,W,1,07,1.6,43.4,M,-32.9,M,,*49
$GPRMC,230128,A,3253.9400,N,11713.0642,W,23.2,319.5,030602,13.0,E,A*04
$GPGGA,230128,3253.9400,N,11713.0642,W,1,07,1.6,42.4,M,-32.9,M,,*42
$GPRMC,230130,A,3253.9508,N,11713.0762,W,27.9,316.8,030602,13.0,E,A*0A
$GPGGA,230130,3253.9508,N,11713.0762,W,1,07,1.6,41.4,M,-32.9,M,,*42
$GPRMC,230132,A,3253.9635,N,11713.0909,W,32.9,316.8,030602,13.0,E,A*02
$GPGGA,230132,3253.9635,N,11713.0909,W,1,07,1.6,40.3,M,-32.9,M,,*48
$GPRMC,230134,A,3253.9783,N,11713.1062,W,36.3,320.0,030602,13.0,E,A*0E
$GPGGA,230134,3253.9783,N,11713.1062,W,1,07,1.6,39.2,M,-32.9,M,,*48
$GPRMC,230136,A,3253.9949,N,11713.1224,W,39.7,321.5,030602,13.0,E,A*0B
$GPGGA,230136,3253.9949,N,11713.1224,W,1,07,1.6,37.7,M,-32.9,M,,*49
$GPRMC,230138,A,3254.0131,N,11713.1400,W,42.9,321.1,030602,13.0,E,A*0A
$GPGGA,230138,3254.0131,N,11713.1400,W,1,06,1.6,35.4,M,-32.9,M,,*4E
$GPRMC,230140,A,3254.0314,N,11713.1578,W,42.4,321.0,030602,13.0,E,A*02
$GPGGA,230140,3254.0314,N,11713.1578,W,1,06,1.6,32.7,M,-32.9,M,,*4E
$GPRMC,230142,A,3254.0492,N,11713.1752,W,41.5,320.6,030602,13.0,E,A*06
$GPGGA,230142,3254.0492,N,11713.1752,W,1,06,1.6,29.6,M,-32.9,M,,*44
$GPRMC,230144,A,3254.0670,N,11713.1928,W,41.7,320.7,030602,13.0,E,A*0E
$GPGGA,230144,3254.0670,N,11713.1928,W,1,06,1.6,26.2,M,-32.9,M,,*44
$GPRMC,230146,A,3254.0837,N,11713.2097,W,38.4,320.0,030602,13.0,E,A*05
$GPGGA,230146,3254.0837,N,11713.2097,W,1,06,1.6,23.4,M,-32.9,M,,*46
$GPRMC,230148,A,3254.0983,N,11713.2253,W,34.7,317.8,030602,13.0,E,A*0C
$GPGGA,230148,3254.0983,N,11713.2253,W,1,07,1.3,20.1,M,-32.9,M,,*4E
$GPRMC,230150,A,3254.1127,N,11713.2408,W,35.0,318.9,030602,13.0,E,A*02
$GPGGA,230150,3254.1127,N,11713.2408,W,1,06,1.4,16.9,M,-32.9,M,,*43
$GPRMC,230152,A,3254.1274,N,11713.2558,W,34.9,319.5,030602,13.0,E,A*04
$GPGGA,230152,3254.1274,N,11713.2558,W,1,06,1.4,14.5,M,-32.9,M,,*4E
$GPRMC,230154,A,3254.1402,N,11713.2684,W,27.4,320.2,030602,13.0,E,A*05
$GPGGA,230154,3254.1402,N,11713.2684,W,1,06,1.4,13.4,M,-32.9,M,,*4B
$GPRMC,230156,A,3254.1474,N,11713.2768,W,15.7,309.8,030602,13.0,E,A*06
$GPGGA,230156,3254.1474,N,11713.2768,W,1,06,1.5,12.9,M,-32.9,M,,*46
$GPRMC,230158,A,3254.1488,N,11713.2856,W,13.6,270.1,030602,13.0,E,A*08
$GPGGA,230158,3254.1488,N,11713.2856,W,1,07,1.7,12.6,M,-32.9,M,,*45
$GPRMC,230200,A,3254.1438,N,11713.2949,W,17.9,231.3,030602,13.0,E,A*0E
$GPGGA,230200,3254.1438,N,11713.2949,W,1,07,1.8,12.0,M,-32.9,M,,*46
$GPRMC,230202,A,3254.1374,N,11713.3047,W,19.7,234.4,030602,13.0,E,A*07
$GPGGA,230202,3254.1374,N,11713.3047,W,1,07,2.3,11.8,M,-32.9,M,,*4E
$GPRMC,230204,A,3254.1310,N,11713.3153,W,19.7,234.4,030602,13.0,E,A*07
$GPGGA,230204,3254.1310,N,11713.3153,W,1,07,2.3,11.6,M,-32.9,M,,*40
$GPRMC,230206,A,3254.1245,N,11713.3259,W,18.3,231.5,030602,13.0,E,A*0C
$GPGGA,230206,3254.1245,N,11713.3259,W,1,07,2.1,11.4,M,-32.9,M,,*4A
$GPRMC,230208,A,3254.1198,N,11713.3328,W,11.7,232.1,030602,13.0,E,A*0C
$GPGGA,230208,3254.1198,N,11713.3328,W,1,07,1.5,11.0,M,-32.9,M,,*43
$GPRMC,230210,A,3254.1170,N,11713.3370,W,6.5,232.3,030602,13.0,E,A*38
$GPGGA,230210,3254.1170,N,11713.3370,W,1,07,1.2,10.6,M,-32.9,M,,*41
$GPRMC,230212,A,3254.1162,N,11713.3381,W,0.6,232.7,030602,13.0,E,A*36
$GPGGA,230212,3254.1162,N,11713.3381,W,1,07,1.2,10.4,M,-32.9,M,,*4C
$GPRMC,230214,A,3254.1160,N,11713.3381,W,0.0,232.7,030602,13.0,E,A*34
$GPGGA,230214,3254.1160,N,11713.3381,W,1,07,1.2,10.2,M,-32.9,M,,*4E
$GPRMC,230216,A,3254.1159,N,11713.3382,W,0.0,232.7,030602,13.0,E,A*3F
$GPGGA,230216,3254.1159,N,11713.3382,W,1,07,1.2,10.1,M,-32.9,M,,*46
$GPRMC,230218,A,3254.1158,N,11713.3383,W,0.2,232.7,030602,13.0,E,A*33
$GPGGA,230218,3254.1158,N,11713.3383,W,1,07,1.2,9.9,M,-32.9,M,,*78
$GPRMC,230220,A,3254.1155,N,11713.3387,W,1.0,232.7,030602,13.0,E,A*32
$GPGGA,230220,3254.1155,N,11713.3387,W,1,07,1.2,9.6,M,-32.9,M,,*75
$GPRMC,230222,A,3254.1148,N,11713.3397,W,0.9,229.4,030602,13.0,E,A*3C
$GPGGA,230222,3254.1148,N,11713.3397,W,1,07,1.2,9.4,M,-32.9,M,,*78
$GPRMC,230224,A,3254.1142,N,11713.3407,W,3.1,231.9,030602,13.0,E,A*31
$GPGGA,230224,3254.1142,N,11713.3407,W,1,07,1.2,9.2,M,-32.9,M,,*7C
$GPRMC,230226,A,3254.1110,N,11713.3457,W,11.0,233.3,030602,13.0,E,A*0B
$GPGGA,230226,3254.1110,N,11713.3457,W,1,07,1.3,8.9,M,-32.9,M,,*77
$GPRMC,230228,A,3254.1062,N,11713.3538,W,16.1,234.6,030602,13.0,E,A*0D
$GPGGA,230228,3254.1062,N,11713.3538,W,1,07,1.5,8.7,M,-32.9,M,,*7D
$GPRMC,230230,A,3254.1003,N,11713.3637,W,19.0,234.9,030602,13.0,E,A*0E
$GPGGA,230230,3254.1003,N,11713.3637,W,1,07,1.3,8.8,M,-32.9,M,,*76
$GPRMC,230232,A,3254.0945,N,11713.3732,W,17.0,234.8,030602,13.0,E,A*0D
$GPGGA,230232,3254.0945,N,11713.3732,W,1,07,1.3,8.8,M,-32.9,M,,*7A
$GPRMC,230234,A,3254.0890,N,11713.3824,W,17.6,234.7,030602,13.0,E,A*03
$GPGGA,230234,3254.0890,N,11713.3824,W,1,07,1.4,8.6,M,-32.9,M,,*74
$GPRMC,230236,A,3254.0829,N,11713.3921,W,18.4,232.8,030602,13.0,E,A*03
$GPGGA,230236,3254.0829,N,11713.3921,W,1,07,1.4,8.7,M,-32.9,M,,*71
$GPRMC,230238,A,3254.0766,N,11713.4018,W,18.0,232.6,030602,13.0,E,A*07
$GPGGA,230238,3254.0766,N,11713.4018,W,1,07,1.2,8.8,M,-32.9,M,,*76
$GPRMC,230240,A,3254.0712,N,11713.4098,W,14.8,230.8,030602,13.0,E,A*0B
$GPGGA,230240,3254.0712,N,11713.4098,W,1,08,1.3,9.5,M,-32.9,M,,*70
$GPRMC,230242,A,3254.0659,N,11713.4174,W,14.9,231.1,030602,13.0,E,A*0D
$GPGGA,230242,3254.0659,N,11713.4174,W,1,08,1.2,9.5,M,-32.9,M,,*7E
$GPRMC,230244,A,3254.0606,N,11713.4251,W,15.1,228.6,030602,13.0,E,A*03
$GPGGA,230244,3254.0606,N,11713.4251,W,1,08,1.4,8.9,M,-32.9,M,,*7D
$GPRMC,230246,A,3254.0560,N,11713.4320,W,12.4,234.2,030602,13.0,E,A*0E
$GPGGA,230246,3254.0560,N,11713.4320,W,1,08,1.9,8.6,M,-32.9,M,,*79
$GPRMC,230248,A,3254.0540,N,11713.4375,W,8.5,279.6,030602,13.0,E,A*35
$GPGGA,230248,3254.0540,N,11713.4375,W,1,08,1.6,8.5,M,-32.9,M,,*79
$GPRMC,230250,A,3254.0569,N,11713.4435,W,14.2,312.7,030602,13.0,E,A*03
$GPGGA,230250,3254.0569,N,11713.4435,W,1,08,1.3,8.2,M,-32.9,M,,*7A
$GPRMC,230252,A,3254.0631,N,11713.4511,W,17.6,317.8,030602,13.0,E,A*05
$GPGGA,230252,3254.0631,N,11713.4511,W,1,07,1.4,7.8,M,-32.9,M,,*7C
$GPRMC,230254,A,3254.0710,N,11713.4582,W,17.9,323.7,030602,13.0,E,A*0C
$GPGGA,230254,3254.0710,N,11713.4582,W,1,08,1.6,7.7,M,-32.9,M,,*70
$GPRMC,230256,A,3254.0784,N,11713.4656,W,16.4,319.1,030602,13.0,E,A*0A
$GPGGA,230256,3254.0784,N,11713.4656,W,1,08,1.7,8.1,M,-32.9,M,,*7D
$GPRMC,230258,A,3254.0854,N,11713.4727,W,15.9,319.5,030602,13.0,E,A*0B
$GPGGA,230258,3254.0854,N,11713.4727,W,1,08,1.8,8.2,M,-32.9,M,,*7A
$GPRMC,230300,A,3254.0921,N,11713.4794,W,14.8,320.1,030602,13.0,E,A*02
$GPGGA,230300,3254.0921,N,11713.4794,W,1,08,1.9,8.4,M,-32.9,M,,*7A
$GPRMC,230302,A,3254.0983,N,11713.4856,W,14.0,318.2,030602,13.0,E,A*09
$GPGGA,230302,3254.0983,N,11713.4856,W,1,08,1.9,8.5,M,-32.9,M,,*70
$GPRMC,230304,A,3254.1014,N,11713.4928,W,11.2,274.3,030602,13.0,E,A*0C
$GPGGA,230304,3254.1014,N,11713.4928,W,1,08,1.5,8.7,M,-32.9,M,,*76
$GPRMC,230306,A,3254.0995,N,11713.4987,W,8.7,242.1,030602,13.0,E,A*30
$GPGGA,230306,3254.0995,N,11713.4987,W,1,07,1.7,9.0,M,-32.9,M,,*7B
$GPRMC,230308,A,3254.0968,N,11713.5031,W,8.2,230.2,030602,13.0,E,A*3A
$GPGGA,230308,3254.0968,N,11713.5031,W,1,07,1.7,8.5,M,-32.9,M,,*76
$GPRMC,230310,A,3254.0921,N,11713.5095,W,14.4,228.1,030602,13.0,E,A*01
$GPGGA,230310,3254.0921,N,11713.5095,W,1,07,1.7,8.7,M,-32.9,M,,*7E
$GPRMC,230312,A,3254.0846,N,11713.5179,W,19.9,220.7,030602,13.0,E,A*0E
$GPGGA,230312,3254.0846,N,11713.5179,W,1,07,1.3,9.3,M,-32.9,M,,*7E
$GPRMC,230314,A,3254.0751,N,11713.5260,W,21.2,214.6,030602,13.0,E,A*0C
$GPGGA,230314,3254.0751,N,11713.5260,W,1,07,1.3,10.7,M,-32.9,M,,*46
$GPRMC,230316,A,3254.0642,N,11713.5336,W,23.2,209.2,030602,13.0,E,A*05
$GPGGA,230316,3254.0642,N,11713.5336,W,1,07,1.3,12.1,M,-32.9,M,,*41
$GPRMC,230318,A,3254.0516,N,11713.5407,W,25.6,203.8,030602,13.0,E,A*0E
$GPGGA,230318,3254.0516,N,11713.5407,W,1,07,1.4,13.4,M,-32.9,M,,*4B
$GPRMC,230320,A,3254.0377,N,11713.5464,W,26.8,197.2,030602,13.0,E,A*08
$GPGGA,230320,3254.0377,N,11713.5464,W,1,07,1.4,14.9,M,-32.9,M,,*4E
$GPRMC,230322,A,3254.0222,N,11713.5500,W,29.0,189.1,030602,13.0,E,A*03
$GPGGA,230322,3254.0222,N,11713.5500,W,1,08,2.0,16.4,M,-32.9,M,,*49
$GPRMC,230324,A,3254.0061,N,11713.5515,W,29.5,183.5,030602,13.0,E,A*0F
$GPGGA,230324,3254.0061,N,11713.5515,W,1,08,2.1,18.1,M,-32.9,M,,*44
$GPRMC,230326,A,3253.9894,N,11713.5523,W,30.0,181.9,030602,13.0,E,A*07
$GPGGA,230326,3253.9894,N,11713.5523,W,1,08,1.9,19.6,M,-32.9,M,,*42
$GPRMC,230328,A,3253.9721,N,11713.5528,W,31.2,181.4,030602,13.0,E,A*0D
$GPGGA,230328,3253.9721,N,11713.5528,W,1,07,2.7,21.3,M,-32.9,M,,*4A
$GPRMC,230330,A,3253.9546,N,11713.5536,W,31.4,182.8,030602,13.0,E,A*01
$GPGGA,230330,3253.9546,N,11713.5536,W,1,07,2.7,22.7,M,-32.9,M,,*48
$GPRMC,230332,A,3253.9368,N,11713.5549,W,32.6,183.9,030602,13.0,E,A*00
$GPGGA,230332,3253.9368,N,11713.5549,W,1,06,1.9,23.6,M,-32.9,M,,*44
$GPRMC,230334,A,3253.9185,N,11713.5563,W,33.6,184.4,030602,13.0,E,A*04
$GPGGA,230334,3253.9185,N,11713.5563,W,1,06,1.9,24.4,M,-32.9,M,,*4E
$GPRMC,230336,A,3253.8990,N,11713.5578,W,36.0,182.8,030602,13.0,E,A*08
$GPGGA,230336,3253.8990,N,11713.5578,W,1,06,2.0,25.6,M,-32.9,M,,*42
$GPRMC,230338,A,3253.8791,N,11713.5592,W,35.8,184.6,030602,13.0,E,A*0E
$GPGGA,230338,3253.8791,N,11713.5592,W,1,07,1.9,27.8,M,-33.0,M,,*48
$GPRMC,230340,A,3253.8587,N,11713.5621,W,37.6,187.6,030602,13.0,E,A*00
$GPGGA,230340,3253.8587,N,11713.5621,W,1,07,1.3,29.5,M,-33.0,M,,*40
$GPRMC,230342,A,3253.8381,N,11713.5668,W,38.0,192.0,030602,13.0,E,A*04
$GPGGA,230342,3253.8381,N,11713.5668,W,1,07,1.4,31.3,M,-33.0,M,,*47
$GPRMC,230344,A,3253.8173,N,11713.5729,W,38.6,194.3,030602,13.0,E,A*0A
$GPGGA,230344,3253.8173,N,11713.5729,W,1,08,1.2,32.9,M,-33.0,M,,*4A
$GPRMC,230346,A,3253.7965,N,11713.5792,W,38.9,194.5,030602,13.0,E,A*01
$GPGGA,230346,3253.7965,N,11713.5792,W,1,08,0.9,34.4,M,-33.0,M,,*49
$GPRMC,230348,A,3253.7750,N,11713.5860,W,40.0,195.0,030602,13.0,E,A*07
$GPGGA,230348,3253.7750,N,11713.5860,W,1,08,1.0,36.1,M,-33.0,M,,*42
$GPRMC,230350,A,3253.7529,N,11713.5929,W,41.2,194.9,030602,13.0,E,A*05
$GPGGA,230350,3253.7529,N,11713.5929,W,1,08,1.0,37.9,M,-33.0,M,,*42
$GPRMC,230352,A,3253.7306,N,11713.6005,W,41.7,197.1,030602,13.0,E,A*06
$GPGGA,230352,3253.7306,N,11713.6005,W,1,08,1.1,39.5,M,-33.0,M,,*4C
$GPRMC,230354,A,3253.7085,N,11713.6090,W,41.3,198.8,030602,13.0,E,A*06
$GPGGA,230354,3253.7085,N,11713.6090,W,1,08,1.1,41.5,M,-33.0,M,,*41
$GPRMC,230356,A,3253.6863,N,11713.6170,W,41.7,196.3,030602,13.0,E,A*0B
$GPGGA,230356,3253.6863,N,11713.6170,W,1,08,1.1,43.2,M,-33.0,M,,*48
$GPRMC,230358,A,3253.6632,N,11713.6237,W,43.2,193.2,030602,13.0,E,A*0C
$GPGGA,230358,3253.6632,N,11713.6237,W,1,08,1.1,44.7,M,-33.0,M,,*4E
$GPRMC,230400,A,3253.6387,N,11713.6302,W,45.2,193.7,030602,13.0,E,A*09
$GPGGA,230400,3253.6387,N,11713.6302,W,1,09,1.3,46.3,M,-33.0,M,,*4D
$GPRMC,230402,A,3253.6157,N,11713.6362,W,41.4,192.0,030602,13.0,E,A*06
$GPGGA,230402,3253.6157,N,11713.6362,W,1,09,1.0,47.6,M,-33.0,M,,*41
$GPRMC,230404,A,3253.5928,N,11713.6412,W,42.1,190.0,030602,13.0,E,A*07
$GPGGA,230404,3253.5928,N,11713.6412,W,1,09,1.0,48.9,M,-33.0,M,,*44
$GPRMC,230406,A,3253.5691,N,11713.6449,W,43.3,186.5,030602,13.0,E,A*07
$GPGGA,230406,3253.5691,N,11713.6449,W,1,08,1.0,50.1,M,-33.0,M,,*45
$GPRMC,230408,A,3253.5446,N,11713.6475,W,44.4,184.8,030602,13.0,E,A*01
$GPGGA,230408,3253.5446,N,11713.6475,W,1,08,1.2,51.2,M,-33.0,M,,*4C
$GPRMC,230410,A,3253.5196,N,11713.6501,W,45.9,185.0,030602,13.0,E,A*07
$GPGGA,230410,3253.5196,N,11713.6501,W,1,08,1.1,52.3,M,-33.0,M,,*4E
$GPRMC,230412,A,3253.4936,N,11713.6524,W,47.3,183.9,030602,13.0,E,A*06
$GPGGA,230412,3253.4936,N,11713.6524,W,1,08,1.0,53.5,M,-33.0,M,,*4E
$GPRMC,230414,A,3253.4669,N,11713.6548,W,48.6,185.0,030602,13.0,E,A*0A
$GPGGA,230414,3253.4669,N,11713.6548,W,1,08,1.2,54.9,M,-33.0,M,,*4E
$GPRMC,230416,A,3253.4401,N,11713.6576,W,48.8,185.1,030602,13.0,E,A*06
$GPGGA,230416,3253.4401,N,11713.6576,W,1,08,0.9,56.4,M,-33.0,M,,*48
$GPRMC,230418,A,3253.4118,N,11713.6605,W,51.7,184.9,030602,13.0,E,A*0C
$GPGGA,230418,3253.4118,N,11713.6605,W,1,08,0.9,57.9,M,-33.0,M,,*40
$GPRMC,230420,A,3253.3821,N,11713.6634,W,54.2,184.9,030602,13.0,E,A*01
$GPGGA,230420,3253.3821,N,11713.6634,W,1,08,1.0,59.7,M,-33.0,M,,*45
$GPRMC,230422,A,3253.3511,N,11713.6664,W,56.1,184.5,030602,13.0,E,A*05
$GPGGA,230422,3253.3511,N,11713.6664,W,1,09,1.0,61.6,M,-33.0,M,,*47
$GPRMC,230424,A,3253.3196,N,11713.6692,W,56.9,184.3,030602,13.0,E,A*0F
$GPGGA,230424,3253.3196,N,11713.6692,W,1,09,1.0,63.3,M,-33.0,M,,*44
$GPRMC,230426,A,3253.2876,N,11713.6723,W,57.9,184.8,030602,13.0,E,A*0A
$GPGGA,230426,3253.2876,N,11713.6723,W,1,09,1.1,65.1,M,-33.0,M,,*4E
$GPRMC,230428,A,3253.2552,N,11713.6755,W,58.2,184.8,030602,13.0,E,A*0A
$GPGGA,230428,3253.2552,N,11713.6755,W,1,09,0.9,66.9,M,-33.0,M,,*48
$GPRMC,230430,A,3253.2226,N,11713.6785,W,58.6,184.5,030602,13.0,E,A*03
$GPGGA,230430,3253.2226,N,11713.6785,W,1,09,1.4,68.4,M,-33.0,M,,*47
$GPRMC,230432,A,3253.1897,N,11713.6815,W,58.8,184.8,030602,13.0,E,A*07
$GPGGA,230432,3253.1897,N,11713.6815,W,1,08,1.3,70.5,M,-33.0,M,,*4E
$GPRMC,230434,A,3253.1572,N,11713.6846,W,58.7,184.5,030602,13.0,E,A*03
$GPGGA,230434,3253.1572,N,11713.6846,W,1,09,1.0,72.3,M,-33.0,M,,*4E
$GPRMC,230436,A,3253.1252,N,11713.6877,W,56.9,184.7,030602,13.0,E,A*04
$GPGGA,230436,3253.1252,N,11713.6877,W,1,09,0.9,74.1,M,-33.0,M,,*47
$GPRMC,230438,A,3253.0946,N,11713.6903,W,54.6,183.9,030602,13.0,E,A*03
$GPGGA,230438,3253.0946,N,11713.6903,W,1,09,0.9,75.7,M,-33.0,M,,*43
$GPRMC,230440,A,3253.0651,N,11713.6920,W,52.2,182.6,030602,13.0,E,A*08
$GPGGA,230440,3253.0651,N,11713.6920,W,1,09,1.0,77.4,M,-33.0,M,,*4D
$GPRMC,230442,A,3253.0376,N,11713.6940,W,48.8,184.3,030602,13.0,E,A*0E
$GPGGA,230442,3253.0376,N,11713.6940,W,1,09,1.2,79.1,M,-33.0,M,,*40
$GPRMC,230444,A,3253.0114,N,11713.6965,W,47.1,184.5,030602,13.0,E,A*09
$GPGGA,230444,3253.0114,N,11713.6965,W,1,09,1.2,80.4,M,-33.0,M,,*44
$GPRMC,230446,A,3252.9848,N,11713.6992,W,48.5,184.8,030602,13.0,E,A*0D
$GPGGA,230446,3252.9848,N,11713.6992,W,1,09,1.4,81.6,M,-33.0,M,,*43
$GPRMC,230448,A,3252.9579,N,11713.7017,W,48.3,184.6,030602,13.0,E,A*01
$GPGGA,230448,3252.9579,N,11713.7017,W,1,08,1.4,82.9,M,-33.0,M,,*4A
$GPRMC,230450,A,3252.9311,N,11713.7042,W,48.7,184.4,030602,13.0,E,A*06
$GPGGA,230450,3252.9311,N,11713.7042,W,1,08,1.3,84.0,M,-33.0,M,,*43
$GPRMC,230452,A,3252.9032,N,11713.7069,W,50.6,184.3,030602,13.0,E,A*00
$GPGGA,230452,3252.9032,N,11713.7069,W,1,08,1.5,84.8,M,-33.0,M,,*44
$GPRMC,230454,A,3252.8749,N,11713.7093,W,51.7,183.5,030602,13.0,E,A*08
$GPGGA,230454,3252.8749,N,11713.7093,W,1,08,1.3,85.6,M,-33.0,M,,*44
$GPRMC,230456,A,3252.8441,N,11713.7116,W,55.4,184.0,030602,13.0,E,A*08
$GPGGA,230456,3252.8441,N,11713.7116,W,1,08,1.3,86.4,M,-33.0,M,,*40
$GPRMC,230458,A,3252.8123,N,11713.7144,W,57.8,184.3,030602,13.0,E,A*0D
$GPGGA,230458,3252.8123,N,11713.7144,W,1,08,1.3,86.4,M,-33.0,M,,*48
$GPRMC,230500,A,3252.7789,N,11713.7172,W,60.8,184.1,030602,13.0,E,A*0B
$GPGGA,230500,3252.7789,N,11713.7172,W,1,08,1.4,86.5,M,-33.0,M,,*4E
$GPRMC,230502,A,3252.7436,N,11713.7205,W,64.3,184.6,030602,13.0,E,A*05
$GPGGA,230502,3252.7436,N,11713.7205,W,1,09,1.5,85.7,M,-33.0,M,,*49
$GPRMC,230504,A,3252.7077,N,11713.7238,W,64.5,184.7,030602,13.0,E,A*0B
$GPGGA,230504,3252.7077,N,11713.7238,W,1,09,1.5,84.8,M,-33.0,M,,*4E
$GPRMC,230506,A,3252.6718,N,11713.7273,W,64.4,184.8,030602,13.0,E,A*07
$GPGGA,230506,3252.6718,N,11713.7273,W,1,09,1.2,83.7,M,-33.0,M,,*43
$GPRMC,230508,A,3252.6363,N,11713.7307,W,63.8,184.5,030602,13.0,E,A*05
$GPGGA,230508,3252.6363,N,11713.7307,W,1,09,1.2,82.8,M,-33.0,M,,*49
$GPRMC,230510,A,3252.6003,N,11713.7341,W,64.6,184.6,030602,13.0,E,A*01
$GPGGA,230510,3252.6003,N,11713.7341,W,1,08,1.3,81.7,M,-33.0,M,,*4B
$GPRMC,230512,A,3252.5647,N,11713.7376,W,64.0,184.8,030602,13.0,E,A*0A
$GPGGA,230512,3252.5647,N,11713.7376,W,1,08,0.9,80.6,M,-33.0,M,,*43
$GPRMC,230514,A,3252.5288,N,11713.7410,W,64.5,184.5,030602,13.0,E,A*04
$GPGGA,230514,3252.5288,N,11713.7410,W,1,08,1.0,79.5,M,-33.0,M,,*48
$GPRMC,230516,A,3252.4932,N,11713.7443,W,63.8,184.5,030602,13.0,E,A*01
$GPGGA,230516,3252.4932,N,11713.7443,W,1,08,1.0,78.4,M,-33.0,M,,*47
$GPRMC,230518,A,3252.4580,N,11713.7475,W,63.1,184.3,030602,13.0,E,A*00
$GPGGA,230518,3252.4580,N,11713.7475,W,1,08,1.0,77.5,M,-33.0,M,,*47
$GPRMC,230520,A,3252.4226,N,11713.7500,W,63.8,183.2,030602,13.0,E,A*0C
$GPGGA,230520,3252.4226,N,11713.7500,W,1,08,1.0,76.5,M,-33.0,M,,*45
$GPRMC,230522,A,3252.3870,N,11713.7527,W,63.8,184.1,030602,13.0,E,A*01
$GPGGA,230522,3252.3870,N,11713.7527,W,1,08,1.1,75.4,M,-33.0,M,,*4F
$GPRMC,230524,A,3252.3518,N,11713.7559,W,63.0,184.3,030602,13.0,E,A*07
$GPGGA,230524,3252.3518,N,11713.7559,W,1,08,1.1,74.7,M,-33.0,M,,*41
$GPRMC,230526,A,3252.3169,N,11713.7591,W,63.0,184.3,030602,13.0,E,A*03
$GPGGA,230526,3252.3169,N,11713.7591,W,1,08,1.3,74.3,M,-33.0,M,,*43
$GPRMC,230528,A,3252.2820,N,11713.7623,W,62.4,184.8,030602,13.0,E,A*0C
$GPGGA,230528,3252.2820,N,11713.7623,W,1,08,1.3,74.8,M,-33.0,M,,*49
$GPRMC,230530,A,3252.2474,N,11713.7658,W,62.5,184.9,030602,13.0,E,A*04
$GPGGA,230530,3252.2474,N,11713.7658,W,1,08,0.9,76.0,M,-33.0,M,,*40
$GPRMC,230532,A,3252.2128,N,11713.7692,W,62.0,184.6,030602,13.0,E,A*06
$GPGGA,230532,3252.2128,N,11713.7692,W,1,08,0.9,77.5,M,-33.0,M,,*4C
$GPRMC,230534,A,3252.1786,N,11713.7725,W,61.8,184.7,030602,13.0,E,A*06
$GPGGA,230534,3252.1786,N,11713.7725,W,1,08,0.9,78.6,M,-33.0,M,,*4A
$GPRMC,230536,A,3252.1444,N,11713.7757,W,61.2,184.6,030602,13.0,E,A*07
$GPGGA,230536,3252.1444,N,11713.7757,W,1,08,0.9,79.7,M,-33.0,M,,*40
$GPRMC,230538,A,3252.1107,N,11713.7790,W,60.4,184.8,030602,13.0,E,A*09
$GPGGA,230538,3252.1107,N,11713.7790,W,1,08,0.9,80.8,M,-33.0,M,,*4E
$GPRMC,230540,A,3252.0772,N,11713.7823,W,60.4,184.8,030602,13.0,E,A*04
$GPGGA,230540,3252.0772,N,11713.7823,W,1,08,0.9,81.9,M,-33.0,M,,*43
$GPRMC,230542,A,3252.0436,N,11713.7856,W,60.7,184.7,030602,13.0,E,A*0B
$GPGGA,230542,3252.0436,N,11713.7856,W,1,08,1.1,83.2,M,-33.0,M,,*40
$GPRMC,230544,A,3252.0100,N,11713.7889,W,60.3,184.7,030602,13.0,E,A*0B
$GPGGA,230544,3252.0100,N,11713.7889,W,1,08,1.0,84.3,M,-33.0,M,,*43
$GPRMC,230546,A,3251.9764,N,11713.7923,W,60.7,184.9,030602,13.0,E,A*0C
$GPGGA,230546,3251.9764,N,11713.7923,W,1,08,1.0,85.6,M,-33.0,M,,*4A
$GPRMC,230548,A,3251.9423,N,11713.7959,W,61.6,184.9,030602,13.0,E,A*0F
$GPGGA,230548,3251.9423,N,11713.7959,W,1,08,0.9,87.0,M,-33.0,M,,*45
$GPRMC,230550,A,3251.9079,N,11713.7992,W,61.8,184.8,030602,13.0,E,A*05
$GPGGA,230550,3251.9079,N,11713.7992,W,1,08,0.9,88.3,M,-33.0,M,,*4C
$GPRMC,230552,A,3251.8731,N,11713.8026,W,63.2,184.7,030602,13.0,E,A*03
$GPGGA,230552,3251.8731,N,11713.8026,W,1,08,0.9,89.6,M,-33.0,M,,*49
$GPRMC,230554,A,3251.8373,N,11713.8060,W,64.9,184.6,030602,13.0,E,A*08
$GPGGA,230554,3251.8373,N,11713.8060,W,1,08,0.9,90.9,M,-33.0,M,,*48
$GPRMC,230556,A,3251.8012,N,11713.8095,W,65.0,184.7,030602,13.0,E,A*0D
$GPGGA,230556,3251.8012,N,11713.8095,W,1,08,0.9,92.0,M,-33.0,M,,*4F
$GPRMC,230558,A,3251.7645,N,11713.8141,W,66.9,186.6,030602,13.0,E,A*09
$GPGGA,230558,3251.7645,N,11713.8141,W,1,08,0.9,92.6,M,-33.0,M,,*44
$GPRMC,230600,A,3251.7268,N,11713.8185,W,68.4,185.3,030602,13.0,E,A*01
$GPGGA,230600,3251.7268,N,11713.8185,W,1,08,1.0,92.7,M,-33.0,M,,*40
$GPRMC,230602,A,3251.6884,N,11713.8222,W,69.3,184.5,030602,13.0,E,A*05
$GPGGA,230602,3251.6884,N,11713.8222,W,1,08,1.0,92.2,M,-33.0,M,,*40
$GPRMC,230604,A,3251.6494,N,11713.8258,W,70.4,184.7,030602,13.0,E,A*0E
$GPGGA,230604,3251.6494,N,11713.8258,W,1,08,1.1,91.3,M,-33.0,M,,*45
$GPRMC,230606,A,3251.6103,N,11713.8290,W,70.2,183.6,030602,13.0,E,A*03
$GPGGA,230606,3251.6103,N,11713.8290,W,1,08,1.2,89.7,M,-33.0,M,,*46
$GPRMC,230608,A,3251.5714,N,11713.8315,W,69.8,183.3,030602,13.0,E,A*05
$GPGGA,230608,3251.5714,N,11713.8315,W,1,08,1.4,87.7,M,-33.0,M,,*4F
$GPRMC,230610,A,3251.5330,N,11713.8348,W,68.6,184.6,030602,13.0,E,A*0B
$GPGGA,230610,3251.5330,N,11713.8348,W,1,08,1.5,85.8,M,-33.0,M,,*40
$GPRMC,230612,A,3251.4955,N,11713.8382,W,67.1,184.6,030602,13.0,E,A*0F
$GPGGA,230612,3251.4955,N,11713.8382,W,1,08,1.5,84.2,M,-33.0,M,,*47
$GPRMC,230614,A,3251.4589,N,11713.8421,W,65.7,185.5,030602,13.0,E,A*0C
$GPGGA,230614,3251.4589,N,11713.8421,W,1,08,1.5,82.2,M,-33.0,M,,*44
$GPRMC,230616,A,3251.4226,N,11713.8479,W,65.8,189.0,030602,13.0,E,A*07
$GPGGA,230616,3251.4226,N,11713.8479,W,1,08,1.5,80.5,M,-33.0,M,,*4C
$GPRMC,230618,A,3251.3860,N,11713.8572,W,67.6,193.4,030602,13.0,E,A*0F
$GPGGA,230618,3251.3860,N,11713.8572,W,1,08,1.2,78.6,M,-33.0,M,,*44
$GPRMC,230620,A,3251.3491,N,11713.8704,W,69.9,197.8,030602,13.0,E,A*0C
$GPGGA,230620,3251.3491,N,11713.8704,W,1,08,1.4,76.4,M,-33.0,M,,*44
$GPRMC,230622,A,3251.3121,N,11713.8872,W,71.2,202.2,030602,13.0,E,A*09
$GPGGA,230622,3251.3121,N,11713.8872,W,1,08,1.3,74.5,M,-33.0,M,,*42
$GPRMC,230624,A,3251.2761,N,11713.9079,W,72.0,207.1,030602,13.0,E,A*09
$GPGGA,230624,3251.2761,N,11713.9079,W,1,08,1.2,72.4,M,-33.0,M,,*43
$GPRMC,230626,A,3251.2414,N,11713.9315,W,71.8,210.1,030602,13.0,E,A*0E
$GPGGA,230626,3251.2414,N,11713.9315,W,1,08,1.3,70.0,M,-33.0,M,,*4E
$GPRMC,230628,A,3251.2072,N,11713.9554,W,71.3,210.4,030602,13.0,E,A*09
$GPGGA,230628,3251.2072,N,11713.9554,W,1,09,1.3,67.6,M,-33.0,M,,*46
$GPRMC,230630,A,3251.1734,N,11713.9792,W,70.3,210.7,030602,13.0,E,A*0C
$GPGGA,230630,3251.1734,N,11713.9792,W,1,09,1.3,65.5,M,-33.0,M,,*40
$GPRMC,230632,A,3251.1400,N,11714.0025,W,69.3,210.6,030602,13.0,E,A*06
$GPGGA,230632,3251.1400,N,11714.0025,W,1,09,0.9,63.3,M,-33.0,M,,*48
$GPRMC,230634,A,3251.1071,N,11714.0254,W,68.3,210.4,030602,13.0,E,A*05
$GPGGA,230634,3251.1071,N,11714.0254,W,1,09,0.9,61.2,M,-33.0,M,,*4B
$GPRMC,230636,A,3251.0752,N,11714.0477,W,65.7,210.4,030602,13.0,E,A*0E
$GPGGA,230636,3251.0752,N,11714.0477,W,1,09,0.8,59.0,M,-33.0,M,,*41
$GPRMC,230638,A,3251.0441,N,11714.0693,W,64.6,210.4,030602,13.0,E,A*09
$GPGGA,230638,3251.0441,N,11714.0693,W,1,09,0.8,56.9,M,-33.0,M,,*40
$GPRMC,230640,A,3251.0130,N,11714.0908,W,65.0,209.8,030602,13.0,E,A*0B
$GPGGA,230640,3251.0130,N,11714.0908,W,1,09,0.8,55.1,M,-33.1,M,,*4B
$GPRMC,230642,A,3250.9806,N,11714.1109,W,65.7,206.8,030602,13.0,E,A*0D
$GPGGA,230642,3250.9806,N,11714.1109,W,1,09,0.8,53.1,M,-33.1,M,,*43
$GPRMC,230644,A,3250.9471,N,11714.1281,W,65.3,202.2,030602,13.0,E,A*0E
$GPGGA,230644,3250.9471,N,11714.1281,W,1,09,0.9,51.1,M,-33.1,M,,*49
$GPRMC,230646,A,3250.9130,N,11714.1420,W,64.8,198.0,030602,13.0,E,A*09
$GPGGA,230646,3250.9130,N,11714.1420,W,1,09,0.9,49.1,M,-33.1,M,,*4F
$GPRMC,230648,A,3250.8783,N,11714.1530,W,64.5,193.7,030602,13.0,E,A*09
$GPGGA,230648,3250.8783,N,11714.1530,W,1,09,0.9,47.3,M,-33.1,M,,*42
$GPRMC,230650,A,3250.8432,N,11714.1608,W,63.9,189.6,030602,13.0,E,A*00
$GPGGA,230650,3250.8432,N,11714.1608,W,1,09,1.0,45.4,M,-33.1,M,,*47
$GPRMC,230652,A,3250.8081,N,11714.1666,W,63.5,187.6,030602,13.0,E,A*04
$GPGGA,230652,3250.8081,N,11714.1666,W,1,09,1.0,43.5,M,-33.1,M,,*46
$GPRMC,230654,A,3250.7733,N,11714.1720,W,62.6,187.5,030602,13.0,E,A*01
$GPGGA,230654,3250.7733,N,11714.1720,W,1,09,1.1,41.7,M,-33.1,M,,*43
$GPRMC,230656,A,3250.7389,N,11714.1776,W,62.4,188.1,030602,13.0,E,A*0C
$GPGGA,230656,3250.7389,N,11714.1776,W,1,08,1.4,40.2,M,-33.1,M,,*47
$GPRMC,230658,A,3250.7051,N,11714.1827,W,60.8,187.5,030602,13.0,E,A*0A
$GPGGA,230658,3250.7051,N,11714.1827,W,1,08,1.4,38.3,M,-33.1,M,,*4A
$GPRMC,230700,A,3250.6715,N,11714.1878,W,60.8,187.2,030602,13.0,E,A*0D
$GPGGA,230700,3250.6715,N,11714.1878,W,1,08,1.0,36.4,M,-33.1,M,,*47
$GPRMC,230702,A,3250.6377,N,11714.1922,W,61.5,185.8,030602,13.0,E,A*05
$GPGGA,230702,3250.6377,N,11714.1922,W,1,08,1.1,35.3,M,-33.1,M,,*4E
$GPRMC,230704,A,3250.6029,N,11714.1944,W,63.5,182.2,030602,13.0,E,A*04
$GPGGA,230704,3250.6029,N,11714.1944,W,1,08,1.3,34.3,M,-33.1,M,,*43
$GPRMC,230706,A,3250.5675,N,11714.1935,W,63.1,178.0,030602,13.0,E,A*0F
$GPGGA,230706,3250.5675,N,11714.1935,W,1,08,1.4,34.2,M,-33.1,M,,*4D
$GPRMC,230708,A,3250.5325,N,11714.1899,W,63.2,173.8,030602,13.0,E,A*06
$GPGGA,230708,3250.5325,N,11714.1899,W,1,08,1.5,34.4,M,-33.1,M,,*43
$GPRMC,230710,A,3250.4975,N,11714.1827,W,63.4,169.1,030602,13.0,E,A*00
$GPGGA,230710,3250.4975,N,11714.1827,W,1,08,1.6,34.9,M,-33.1,M,,*4F
$GPRMC,230712,A,3250.4634,N,11714.1728,W,63.4,165.5,030602,13.0,E,A*00
$GPGGA,230712,3250.4634,N,11714.1728,W,1,08,1.2,35.3,M,-33.1,M,,*48
$GPRMC,230714,A,3250.4301,N,11714.1606,W,61.6,161.8,030602,13.0,E,A*01
$GPGGA,230714,3250.4301,N,11714.1606,W,1,08,1.7,35.6,M,-33.1,M,,*40
$GPRMC,230716,A,3250.3984,N,11714.1466,W,59.9,159.0,030602,13.0,E,A*00
$GPGGA,230716,3250.3984,N,11714.1466,W,1,08,1.8,36.2,M,-33.1,M,,*4E
$GPRMC,230718,A,3250.3667,N,11714.1323,W,61.1,159.3,030602,13.0,E,A*0A
$GPGGA,230718,3250.3667,N,11714.1323,W,1,08,1.4,36.9,M,-33.1,M,,*43
$GPRMC,230720,A,3250.3346,N,11714.1179,W,61.6,159.2,030602,13.0,E,A*0C
$GPGGA,230720,3250.3346,N,11714.1179,W,1,08,1.2,37.5,M,-33.1,M,,*48
$GPRMC,230722,A,3250.3023,N,11714.1033,W,62.3,159.3,030602,13.0,E,A*06
$GPGGA,230722,3250.3023,N,11714.1033,W,1,08,1.4,38.3,M,-33.1,M,,*4A
$GPRMC,230724,A,3250.2698,N,11714.0886,W,62.5,159.0,030602,13.0,E,A*05
$GPGGA,230724,3250.2698,N,11714.0886,W,1,08,1.5,39.3,M,-33.1,M,,*4C
$GPRMC,230726,A,3250.2371,N,11714.0738,W,62.8,159.2,030602,13.0,E,A*00
$GPGGA,230726,3250.2371,N,11714.0738,W,1,08,2.0,39.7,M,-33.1,M,,*44
$GPRMC,230728,A,3250.2040,N,11714.0587,W,63.7,159.0,030602,13.0,E,A*05
$GPGGA,230728,3250.2040,N,11714.0587,W,1,08,1.4,40.1,M,-33.1,M,,*42
$GPRMC,230730,A,3250.1712,N,11714.0438,W,62.1,159.3,030602,13.0,E,A*0E
$GPGGA,230730,3250.1712,N,11714.0438,W,1,07,1.3,40.6,M,-33.1,M,,*42
$GPRMC,230732,A,3250.1388,N,11714.0292,W,61.8,159.1,030602,13.0,E,A*05
$GPGGA,230732,3250.1388,N,11714.0292,W,1,07,1.2,41.3,M,-33.1,M,,*44
$GPRMC,230734,A,3250.1065,N,11714.0149,W,61.5,159.6,030602,13.0,E,A*0C
$GPGGA,230734,3250.1065,N,11714.0149,W,1,07,1.2,41.8,M,-33.1,M,,*4C
$GPRMC,230736,A,3250.0738,N,11714.0026,W,62.0,163.5,030602,13.0,E,A*04
$GPGGA,230736,3250.0738,N,11714.0026,W,1,08,1.3,41.8,M,-33.1,M,,*46
$GPRMC,230738,A,3250.0401,N,11713.9929,W,62.5,167.2,030602,13.0,E,A*0D
$GPGGA,230738,3250.0401,N,11713.9929,W,1,08,1.0,41.3,M,-33.1,M,,*41
$GPRMC,230740,A,3250.0061,N,11713.9857,W,61.7,171.0,030602,13.0,E,A*0C
$GPGGA,230740,3250.0061,N,11713.9857,W,1,08,1.0,41.0,M,-33.1,M,,*47
$GPRMC,230742,A,3249.9722,N,11713.9812,W,61.2,174.8,030602,13.0,E,A*06
$GPGGA,230742,3249.9722,N,11713.9812,W,1,08,1.3,40.7,M,-33.1,M,,*40
$GPRMC,230744,A,3249.9381,N,11713.9795,W,61.2,178.2,030602,13.0,E,A*0B
$GPGGA,230744,3249.9381,N,11713.9795,W,1,08,1.4,39.9,M,-33.1,M,,*4C
$GPRMC,230746,A,3249.9045,N,11713.9793,W,60.2,179.7,030602,13.0,E,A*01
$GPGGA,230746,3249.9045,N,11713.9793,W,1,08,1.3,39.0,M,-33.1,M,,*4D
$GPRMC,230748,A,3249.8709,N,11713.9787,W,60.6,179.0,030602,13.0,E,A*07
$GPGGA,230748,3249.8709,N,11713.9787,W,1,08,1.4,38.2,M,-33.1,M,,*4C
$GPRMC,230750,A,3249.8368,N,11713.9783,W,61.5,179.6,030602,13.0,E,A*0D
$GPGGA,230750,3249.8368,N,11713.9783,W,1,08,1.4,37.1,M,-33.1,M,,*4E
$GPRMC,230752,A,3249.8018,N,11713.9780,W,63.5,179.5,030602,13.0,E,A*09
$GPGGA,230752,3249.8018,N,11713.9780,W,1,08,1.2,35.4,M,-33.1,M,,*4A
$GPRMC,230754,A,3249.7660,N,11713.9778,W,64.8,179.8,030602,13.0,E,A*09
$GPGGA,230754,3249.7660,N,11713.9778,W,1,08,1.2,33.5,M,-33.1,M,,*4A
$GPRMC,230756,A,3249.7295,N,11713.9775,W,65.9,179.6,030602,13.0,E,A*06
$GPGGA,230756,3249.7295,N,11713.9775,W,1,08,0.9,31.7,M,-33.1,M,,*41
$GPRMC,230758,A,3249.6927,N,11713.9766,W,66.4,177.8,030602,13.0,E,A*07
$GPGGA,230758,3249.6927,N,11713.9766,W,1,08,1.1,30.1,M,-33.1,M,,*40
$GPRMC,230800,A,3249.6557,N,11713.9745,W,66.9,173.3,030602,13.0,E,A*0D
$GPGGA,230800,3249.6557,N,11713.9745,W,1,08,1.1,29.4,M,-33.1,M,,*45
$GPRMC,230802,A,3249.6187,N,11713.9683,W,67.3,169.6,030602,13.0,E,A*08
$GPGGA,230802,3249.6187,N,11713.9683,W,1,08,1.2,28.6,M,-33.1,M,,*45
$GPRMC,230804,A,3249.5819,N,11713.9589,W,68.6,165.4,030602,13.0,E,A*0E
$GPGGA,230804,3249.5819,N,11713.9589,W,1,08,1.0,27.6,M,-33.1,M,,*4A
$GPRMC,230806,A,3249.5451,N,11713.9465,W,67.9,161.8,030602,13.0,E,A*07
$GPGGA,230806,3249.5451,N,11713.9465,W,1,08,1.0,27.4,M,-33.1,M,,*49
$GPRMC,230808,A,3249.5096,N,11713.9286,W,68.7,156.4,030602,13.0,E,A*04
$GPGGA,230808,3249.5096,N,11713.9286,W,1,08,1.1,28.2,M,-33.1,M,,*4B
$GPRMC,230810,A,3249.4760,N,11713.9080,W,67.2,151.9,030602,13.0,E,A*06
$GPGGA,230810,3249.4760,N,11713.9080,W,1,08,1.2,29.1,M,-33.1,M,,*48
$GPRMC,230812,A,3249.4445,N,11713.8850,W,66.4,147.6,030602,13.0,E,A*0B
$GPGGA,230812,3249.4445,N,11713.8850,W,1,08,1.2,30.2,M,-33.1,M,,*41
$GPRMC,230814,A,3249.4146,N,11713.8589,W,66.6,142.8,030602,13.0,E,A*0B
$GPGGA,230814,3249.4146,N,11713.8589,W,1,09,1.2,31.1,M,-33.1,M,,*4B
$GPRMC,230816,A,3249.3863,N,11713.8309,W,65.7,139.8,030602,13.0,E,A*00
$GPGGA,230816,3249.3863,N,11713.8309,W,1,09,1.0,31.3,M,-33.1,M,,*4E
$GPRMC,230818,A,3249.3585,N,11713.8022,W,66.3,139.2,030602,13.0,E,A*0C
$GPGGA,230818,3249.3585,N,11713.8022,W,1,09,1.0,30.7,M,-33.1,M,,*4A
$GPRMC,230820,A,3249.3308,N,11713.7731,W,66.7,138.8,030602,13.0,E,A*01
$GPGGA,230820,3249.3308,N,11713.7731,W,1,09,1.1,29.8,M,-33.1,M,,*4E
$GPRMC,230822,A,3249.3025,N,11713.7439,W,67.8,139.3,030602,13.0,E,A*00
$GPGGA,230822,3249.3025,N,11713.7439,W,1,08,1.3,28.7,M,-33.1,M,,*46
$GPRMC,230824,A,3249.2737,N,11713.7138,W,69.2,138.9,030602,13.0,E,A*08
$GPGGA,230824,3249.2737,N,11713.7138,W,1,07,1.4,27.3,M,-33.1,M,,*42
$GPRMC,230826,A,3249.2445,N,11713.6834,W,70.5,139.0,030602,13.0,E,A*0F
$GPGGA,230826,3249.2445,N,11713.6834,W,1,06,1.1,25.9,M,-33.1,M,,*4E
$GPRMC,230828,A,3249.2146,N,11713.6521,W,71.7,138.8,030602,13.0,E,A*04
$GPGGA,230828,3249.2146,N,11713.6521,W,1,06,1.1,24.5,M,-33.1,M,,*42
$GPRMC,230830,A,3249.1845,N,11713.6210,W,71.9,139.3,030602,13.0,E,A*05
$GPGGA,230830,3249.1845,N,11713.6210,W,1,06,1.2,23.2,M,-33.1,M,,*44
$GPRMC,230832,A,3249.1548,N,11713.5900,W,70.6,138.8,030602,13.0,E,A*0A
$GPGGA,230832,3249.1548,N,11713.5900,W,1,08,1.3,22.2,M,-33.1,M,,*41
$GPRMC,230834,A,3249.1256,N,11713.5596,W,69.6,138.9,030602,13.0,E,A*0E
$GPGGA,230834,3249.1256,N,11713.5596,W,1,08,1.3,21.1,M,-33.1,M,,*4C
$GPRMC,230836,A,3249.0963,N,11713.5291,W,70.5,139.0,030602,13.0,E,A*03
$GPGGA,230836,3249.0963,N,11713.5291,W,1,08,1.1,20.0,M,-33.1,M,,*40
$GPRMC,230838,A,3249.0663,N,11713.4980,W,71.9,139.1,030602,13.0,E,A*04
$GPGGA,230838,3249.0663,N,11713.4980,W,1,08,1.2,18.7,M,-33.1,M,,*44
$GPRMC,230840,A,3249.0356,N,11713.4675,W,71.8,140.6,030602,13.0,E,A*05
$GPGGA,230840,3249.0356,N,11713.4675,W,1,08,1.2,17.7,M,-33.1,M,,*42
$GPRMC,230842,A,3249.0047,N,11713.4394,W,69.8,143.0,030602,13.0,E,A*02
$GPGGA,230842,3249.0047,N,11713.4394,W,1,07,1.4,16.7,M,-33.1,M,,*41
$GPRMC,230844,A,3248.9739,N,11713.4119,W,68.9,143.1,030602,13.0,E,A*04
$GPGGA,230844,3248.9739,N,11713.4119,W,1,07,1.3,15.7,M,-33.1,M,,*42
$GPRMC,230846,A,3248.9433,N,11713.3844,W,68.9,143.2,030602,13.0,E,A*0A
$GPGGA,230846,3248.9433,N,11713.3844,W,1,07,1.3,14.4,M,-33.1,M,,*4D
$GPRMC,230848,A,3248.9128,N,11713.3572,W,68.2,143.2,030602,13.0,E,A*08
$GPGGA,230848,3248.9128,N,11713.3572,W,1,06,1.3,13.4,M,-33.1,M,,*42
$GPRMC,230850,A,3248.8827,N,11713.3313,W,66.7,144.9,030602,13.0,E,A*00
$GPGGA,230850,3248.8827,N,11713.3313,W,1,06,1.3,13.0,M,-33.1,M,,*49
$GPRMC,230852,A,3248.8519,N,11713.3075,W,66.3,147.1,030602,13.0,E,A*0E
$GPGGA,230852,3248.8519,N,11713.3075,W,1,06,1.2,12.1,M,-33.1,M,,*49
$GPRMC,230854,A,3248.8203,N,11713.2843,W,67.1,148.6,030602,13.0,E,A*03
$GPGGA,230854,3248.8203,N,11713.2843,W,1,06,1.2,11.0,M,-33.1,M,,*4D
$GPRMC,230856,A,3248.7882,N,11713.2617,W,67.3,149.3,030602,13.0,E,A*04
$GPGGA,230856,3248.7882,N,11713.2617,W,1,06,1.2,9.4,M,-33.1,M,,*71
$GPRMC,230858,A,3248.7564,N,11713.2385,W,66.9,148.0,030602,13.0,E,A*08
$GPGGA,230858,3248.7564,N,11713.2385,W,1,06,1.2,7.8,M,-33.1,M,,*76
$GPRMC,230900,A,3248.7252,N,11713.2146,W,66.6,146.8,030602,13.0,E,A*02
$GPGGA,230900,3248.7252,N,11713.2146,W,1,06,1.2,7.1,M,-33.1,M,,*7C
$GPRMC,230902,A,3248.6944,N,11713.1906,W,66.1,146.8,030602,13.0,E,A*05
$GPGGA,230902,3248.6944,N,11713.1906,W,1,07,1.9,6.8,M,-33.1,M,,*7E
$GPRMC,230904,A,3248.6645,N,11713.1672,W,64.8,146.6,030602,13.0,E,A*04
$GPGGA,230904,3248.6645,N,11713.1672,W,1,08,1.3,6.8,M,-33.1,M,,*7F
$GPRMC,230906,A,3248.6339,N,11713.1430,W,66.6,146.5,030602,13.0,E,A*03
$GPGGA,230906,3248.6339,N,11713.1430,W,1,08,0.9,7.1,M,-33.1,M,,*74
$GPRMC,230908,A,3248.6031,N,11713.1186,W,66.3,146.3,030602,13.0,E,A*0D
$GPGGA,230908,3248.6031,N,11713.1186,W,1,08,0.9,8.0,M,-33.1,M,,*77
$GPRMC,230910,A,3248.5725,N,11713.0943,W,66.3,146.2,030602,13.0,E,A*04
$GPGGA,230910,3248.5725,N,11713.0943,W,1,08,0.9,9.4,M,-33.1,M,,*7A
$GPRMC,230912,A,3248.5421,N,11713.0700,W,65.8,146.1,030602,13.0,E,A*03
$GPGGA,230912,3248.5421,N,11713.0700,W,1,08,0.9,10.8,M,-33.1,M,,*42
$GPRMC,230914,A,3248.5119,N,11713.0457,W,65.6,145.6,030602,13.0,E,A*00
$GPGGA,230914,3248.5119,N,11713.0457,W,1,08,0.9,12.2,M,-33.1,M,,*43
$GPRMC,230916,A,3248.4816,N,11713.0205,W,66.9,144.8,030602,13.0,E,A*07
$GPGGA,230916,3248.4816,N,11713.0205,W,1,08,0.9,13.8,M,-33.1,M,,*4C
$GPRMC,230918,A,3248.4512,N,11712.9945,W,67.2,144.1,030602,13.0,E,A*04
$GPGGA,230918,3248.4512,N,11712.9945,W,1,08,0.9,15.2,M,-33.1,M,,*40
$GPRMC,230920,A,3248.4206,N,11712.9694,W,66.9,145.9,030602,13.0,E,A*0D
$GPGGA,230920,3248.4206,N,11712.9694,W,1,08,0.9,15.9,M,-33.1,M,,*41
$GPRMC,230922,A,3248.3898,N,11712.9449,W,66.5,146.0,030602,13.0,E,A*01
$GPGGA,230922,3248.3898,N,11712.9449,W,1,08,0.9,16.1,M,-33.1,M,,*40
$GPRMC,230924,A,3248.3594,N,11712.9200,W,66.3,145.1,030602,13.0,E,A*09
$GPGGA,230924,3248.3594,N,11712.9200,W,1,08,0.9,15.6,M,-33.1,M,,*48
$GPRMC,230926,A,3248.3291,N,11712.8952,W,66.2,145.7,030602,13.0,E,A*03
$GPGGA,230926,3248.3291,N,11712.8952,W,1,08,0.9,14.5,M,-33.1,M,,*47
$GPRMC,230928,A,3248.2983,N,11712.8712,W,66.6,147.0,030602,13.0,E,A*0F
$GPGGA,230928,3248.2983,N,11712.8712,W,1,08,0.9,13.2,M,-33.1,M,,*4A
$GPRMC,230930,A,3248.2666,N,11712.8479,W,67.1,148.5,030602,13.0,E,A*00
$GPGGA,230930,3248.2666,N,11712.8479,W,1,08,0.9,11.9,M,-33.1,M,,*40
$GPRMC,230932,A,3248.2345,N,11712.8252,W,67.1,149.4,030602,13.0,E,A*09
$GPGGA,230932,3248.2345,N,11712.8252,W,1,08,1.0,10.7,M,-33.1,M,,*4E
$GPRMC,230934,A,3248.2025,N,11712.8037,W,65.6,150.8,030602,13.0,E,A*0A
$GPGGA,230934,3248.2025,N,11712.8037,W,1,08,0.9,9.5,M,-33.1,M,,*7E
$GPRMC,230936,A,3248.1714,N,11712.7837,W,63.0,151.7,030602,13.0,E,A*07
$GPGGA,230936,3248.1714,N,11712.7837,W,1,08,0.9,8.4,M,-33.1,M,,*7D
$GPRMC,230938,A,3248.1403,N,11712.7652,W,62.4,154.2,030602,13.0,E,A*04
$GPGGA,230938,3248.1403,N,11712.7652,W,1,08,0.9,7.6,M,-33.1,M,,*76
$GPRMC,230940,A,3248.1081,N,11712.7478,W,63.6,155.5,030602,13.0,E,A*0A
$GPGGA,230940,3248.1081,N,11712.7478,W,1,08,0.9,7.1,M,-33.1,M,,*7A
$GPRMC,230942,A,3248.0760,N,11712.7306,W,63.0,155.8,030602,13.0,E,A*04
$GPGGA,230942,3248.0760,N,11712.7306,W,1,08,1.0,6.6,M,-33.1,M,,*71
$GPRMC,230944,A,3248.0443,N,11712.7140,W,61.7,156.3,030602,13.0,E,A*0D
$GPGGA,230944,3248.0443,N,11712.7140,W,1,08,1.0,6.4,M,-33.1,M,,*77
$GPRMC,230946,A,3248.0138,N,11712.6983,W,58.8,156.4,030602,13.0,E,A*02
$GPGGA,230946,3248.0138,N,11712.6983,W,1,08,1.2,5.9,M,-33.1,M,,*76
$GPRMC,230948,A,3247.9839,N,11712.6826,W,58.8,156.2,030602,13.0,E,A*0A
$GPGGA,230948,3247.9839,N,11712.6826,W,1,07,1.2,5.3,M,-33.1,M,,*7D
$GPRMC,230950,A,3247.9537,N,11712.6666,W,59.9,155.7,030602,13.0,E,A*0C
$GPGGA,230950,3247.9537,N,11712.6666,W,1,07,1.0,4.3,M,-33.1,M,,*7E
$GPRMC,230952,A,3247.9233,N,11712.6495,W,60.0,154.7,030602,13.0,E,A*01
$GPGGA,230952,3247.9233,N,11712.6495,W,1,07,1.2,2.8,M,-33.1,M,,*7E
$GPRMC,230954,A,3247.8932,N,11712.6323,W,59.8,154.1,030602,13.0,E,A*02
$GPGGA,230954,3247.8932,N,11712.6323,W,1,07,1.2,2.0,M,-33.1,M,,*71
$GPRMC,230956,A,3247.8636,N,11712.6146,W,59.4,153.0,030602,13.0,E,A*00
$GPGGA,230956,3247.8636,N,11712.6146,W,1,08,1.0,1.0,M,-33.1,M,,*77
$GPRMC,230958,A,3247.8345,N,11712.5970,W,58.8,153.0,030602,13.0,E,A*0C
$GPGGA,230958,3247.8345,N,11712.5970,W,1,08,1.0,-0.0,M,-33.1,M,,*5A
$GPRMC,231000,A,3247.8058,N,11712.5798,W,57.4,153.2,030602,13.0,E,A*0F
$GPGGA,231000,3247.8058,N,11712.5798,W,1,08,1.0,-0.9,M,-33.1,M,,*51
$GPRMC,231002,A,3247.7779,N,11712.5628,W,56.2,152.6,030602,13.0,E,A*0E
$GPGGA,231002,3247.7779,N,11712.5628,W,1,08,1.1,-1.1,M,-33.1,M,,*5A
$GPRMC,231004,A,3247.7502,N,11712.5459,W,55.7,152.9,030602,13.0,E,A*0B
$GPGGA,231004,3247.7502,N,11712.5459,W,1,08,1.1,-1.1,M,-33.1,M,,*56
$GPRMC,231006,A,3247.7227,N,11712.5297,W,55.0,154.1,030602,13.0,E,A*04
$GPGGA,231006,3247.7227,N,11712.5297,W,1,08,1.2,-1.2,M,-33.1,M,,*50
$GPRMC,231008,A,3247.6948,N,11712.5151,W,54.8,156.8,030602,13.0,E,A*02
$GPGGA,231008,3247.6948,N,11712.5151,W,1,07,1.3,-1.1,M,-33.1,M,,*59
$GPRMC,231010,A,3247.6667,N,11712.5017,W,54.1,158.5,030602,13.0,E,A*00
$GPGGA,231010,3247.6667,N,11712.5017,W,1,08,1.2,-0.9,M,-33.1,M,,*56
$GPRMC,231012,A,3247.6386,N,11712.4895,W,53.8,160.2,030602,13.0,E,A*09
$GPGGA,231012,3247.6386,N,11712.4895,W,1,08,1.0,-0.7,M,-33.1,M,,*51
$GPRMC,231014,A,3247.6102,N,11712.4783,W,53.7,162.0,030602,13.0,E,A*06
$GPGGA,231014,3247.6102,N,11712.4783,W,1,08,1.1,-0.2,M,-33.1,M,,*55
$GPRMC,231016,A,3247.5812,N,11712.4679,W,54.8,163.7,030602,13.0,E,A*05
$GPGGA,231016,3247.5812,N,11712.4679,W,1,08,1.2,0.1,M,-33.1,M,,*75
$GPRMC,231018,A,3247.5515,N,11712.4587,W,55.6,165.8,030602,13.0,E,A*05
$GPGGA,231018,3247.5515,N,11712.4587,W,1,08,1.3,0.3,M,-33.1,M,,*70
$GPRMC,231020,A,3247.5211,N,11712.4506,W,56.2,167.8,030602,13.0,E,A*01
$GPGGA,231020,3247.5211,N,11712.4506,W,1,08,1.3,0.6,M,-33.1,M,,*74
$GPRMC,231022,A,3247.4901,N,11712.4438,W,57.1,169.9,030602,13.0,E,A*09
$GPGGA,231022,3247.4901,N,11712.4438,W,1,08,1.4,0.7,M,-33.1,M,,*77
$GPRMC,231024,A,3247.4583,N,11712.4382,W,57.7,172.0,030602,13.0,E,A*0A
$GPGGA,231024,3247.4583,N,11712.4382,W,1,08,1.3,0.9,M,-33.1,M,,*78
$GPRMC,231026,A,3247.4265,N,11712.4329,W,57.7,172.0,030602,13.0,E,A*06
$GPGGA,231026,3247.4265,N,11712.4329,W,1,08,2.4,1.0,M,-33.1,M,,*78
$GPRMC,231028,A,3247.3949,N,11712.4293,W,55.5,175.8,030602,13.0,E,A*05
$GPGGA,231028,3247.3949,N,11712.4293,W,1,08,1.5,2.0,M,-33.1,M,,*75
$GPRMC,231030,A,3247.3646,N,11712.4278,W,54.3,177.7,030602,13.0,E,A*03
$GPGGA,231030,3247.3646,N,11712.4278,W,1,08,0.9,2.3,M,-33.1,M,,*77
$GPRMC,231032,A,3247.3348,N,11712.4276,W,53.1,180.0,030602,13.0,E,A*0E
$GPGGA,231032,3247.3348,N,11712.4276,W,1,08,0.9,2.5,M,-33.1,M,,*76
$GPRMC,231034,A,3247.3054,N,11712.4285,W,53.2,181.8,030602,13.0,E,A*00
$GPGGA,231034,3247.3054,N,11712.4285,W,1,08,0.9,2.7,M,-33.1,M,,*70
$GPRMC,231036,A,3247.2757,N,11712.4305,W,53.7,183.4,030602,13.0,E,A*05
$GPGGA,231036,3247.2757,N,11712.4305,W,1,08,1.0,2.8,M,-33.1,M,,*79
$GPRMC,231038,A,3247.2461,N,11712.4337,W,53.9,185.5,030602,13.0,E,A*05
$GPGGA,231038,3247.2461,N,11712.4337,W,1,08,1.0,2.5,M,-33.1,M,,*7D
$GPRMC,231040,A,3247.2167,N,11712.4379,W,53.0,187.2,030602,13.0,E,A*0F
$GPGGA,231040,3247.2167,N,11712.4379,W,1,08,0.9,2.3,M,-33.1,M,,*75
$GPRMC,231042,A,3247.1876,N,11712.4430,W,52.9,188.5,030602,13.0,E,A*0D
$GPGGA,231042,3247.1876,N,11712.4430,W,1,08,0.9,2.1,M,-33.1,M,,*75
$GPRMC,231044,A,3247.1591,N,11712.4482,W,51.6,188.6,030602,13.0,E,A*09
$GPGGA,231044,3247.1591,N,11712.4482,W,1,08,0.9,1.9,M,-33.1,M,,*75
$GPRMC,231046,A,3247.1303,N,11712.4534,W,52.7,188.5,030602,13.0,E,A*0B
$GPGGA,231046,3247.1303,N,11712.4534,W,1,08,0.9,1.6,M,-33.1,M,,*79
$GPRMC,231048,A,3247.1012,N,11712.4585,W,53.0,188.6,030602,13.0,E,A*09
$GPGGA,231048,3247.1012,N,11712.4585,W,1,09,1.0,1.4,M,-33.1,M,,*75
$GPRMC,231050,A,3247.0719,N,11712.4637,W,53.3,188.1,030602,13.0,E,A*03
$GPGGA,231050,3247.0719,N,11712.4637,W,1,09,1.1,1.2,M,-33.1,M,,*7C
$GPRMC,231052,A,3247.0416,N,11712.4680,W,55.6,186.6,030602,13.0,E,A*0B
$GPGGA,231052,3247.0416,N,11712.4680,W,1,09,1.1,1.0,M,-33.1,M,,*7C
$GPRMC,231054,A,3247.0099,N,11712.4728,W,58.1,187.5,030602,13.0,E,A*05
$GPGGA,231054,3247.0099,N,11712.4728,W,1,09,0.9,0.8,M,-33.1,M,,*7A
$GPRMC,231056,A,3246.9772,N,11712.4785,W,59.8,188.4,030602,13.0,E,A*0C
$GPGGA,231056,3246.9772,N,11712.4785,W,1,09,0.9,0.7,M,-33.1,M,,*7A
$GPRMC,231058,A,3246.9442,N,11712.4843,W,60.1,188.5,030602,13.0,E,A*05
$GPGGA,231058,3246.9442,N,11712.4843,W,1,09,1.0,0.3,M,-33.1,M,,*7D
$GPRMC,231100,A,3246.9108,N,11712.4902,W,60.9,188.5,030602,13.0,E,A*0E
$GPGGA,231100,3246.9108,N,11712.4902,W,1,09,1.0,-0.0,M,-33.1,M,,*50
$GPRMC,231102,A,3246.8770,N,11712.4962,W,61.5,188.5,030602,13.0,E,A*0F
$GPGGA,231102,3246.8770,N,11712.4962,W,1,09,1.0,-0.4,M,-33.1,M,,*58
$GPRMC,231104,A,3246.8431,N,11712.5023,W,61.7,188.4,030602,13.0,E,A*01
$GPGGA,231104,3246.8431,N,11712.5023,W,1,09,1.0,-0.6,M,-33.1,M,,*57
$GPRMC,231106,A,3246.8092,N,11712.5083,W,61.7,188.6,030602,13.0,E,A*06
$GPGGA,231106,3246.8092,N,11712.5083,W,1,09,0.9,-0.5,M,-33.1,M,,*59
$GPRMC,231108,A,3246.7754,N,11712.5143,W,61.2,188.4,030602,13.0,E,A*00
$GPGGA,231108,3246.7754,N,11712.5143,W,1,09,0.9,-0.1,M,-33.1,M,,*5C
$GPRMC,231110,A,3246.7417,N,11712.5193,W,61.1,186.3,030602,13.0,E,A*0A
$GPGGA,231110,3246.7417,N,11712.5193,W,1,09,1.0,0.4,M,-33.1,M,,*7C
$GPRMC,231112,A,3246.7080,N,11712.5215,W,60.6,182.2,030602,13.0,E,A*0C
$GPGGA,231112,3246.7080,N,11712.5215,W,1,09,1.0,0.6,M,-33.1,M,,*7B
$GPRMC,231114,A,3246.6743,N,11712.5207,W,60.8,177.5,030602,13.0,E,A*03
$GPGGA,231114,3246.6743,N,11712.5207,W,1,09,0.9,0.9,M,-33.1,M,,*70
$GPRMC,231116,A,3246.6406,N,11712.5164,W,60.5,172.6,030602,13.0,E,A*0E
$GPGGA,231116,3246.6406,N,11712.5164,W,1,09,0.9,1.1,M,-33.1,M,,*7F
$GPRMC,231118,A,3246.6081,N,11712.5092,W,59.1,168.5,030602,13.0,E,A*05
$GPGGA,231118,3246.6081,N,11712.5092,W,1,09,1.0,1.2,M,-33.1,M,,*79
$GPRMC,231120,A,3246.5756,N,11712.5009,W,60.1,167.6,030602,13.0,E,A*04
$GPGGA,231120,3246.5756,N,11712.5009,W,1,08,1.0,1.4,M,-33.1,M,,*79
$GPRMC,231122,A,3246.5428,N,11712.4925,W,60.5,167.8,030602,13.0,E,A*00
$GPGGA,231122,3246.5428,N,11712.4925,W,1,08,1.0,1.7,M,-33.1,M,,*74
$GPRMC,231124,A,3246.5094,N,11712.4831,W,62.2,166.0,030602,13.0,E,A*0D
$GPGGA,231124,3246.5094,N,11712.4831,W,1,08,1.1,2.0,M,-33.1,M,,*70
$GPRMC,231126,A,3246.4749,N,11712.4729,W,64.5,166.3,030602,13.0,E,A*0D
$GPGGA,231126,3246.4749,N,11712.4729,W,1,08,1.0,2.1,M,-33.1,M,,*72
$GPRMC,231128,A,3246.4396,N,11712.4637,W,65.4,167.8,030602,13.0,E,A*01
$GPGGA,231128,3246.4396,N,11712.4637,W,1,08,1.0,2.0,M,-33.1,M,,*75
$GPRMC,231130,A,3246.4038,N,11712.4547,W,66.0,167.9,030602,13.0,E,A*0D
$GPGGA,231130,3246.4038,N,11712.4547,W,1,08,1.0,1.7,M,-33.1,M,,*7B
$GPRMC,231132,A,3246.3679,N,11712.4456,W,65.9,167.9,030602,13.0,E,A*00
$GPGGA,231132,3246.3679,N,11712.4456,W,1,08,1.0,1.6,M,-33.1,M,,*7D
$GPRMC,231134,A,3246.3322,N,11712.4366,W,65.6,168.0,030602,13.0,E,A*00
$GPGGA,231134,3246.3322,N,11712.4366,W,1,08,1.0,1.2,M,-33.1,M,,*70
$GPRMC,231136,A,3246.2962,N,11712.4275,W,66.2,168.0,030602,13.0,E,A*09
$GPGGA,231136,3246.2962,N,11712.4275,W,1,08,1.0,0.7,M,-33.1,M,,*7A
$GPRMC,231138,A,3246.2597,N,11712.4183,W,67.4,167.9,030602,13.0,E,A*0A
$GPGGA,231138,3246.2597,N,11712.4183,W,1,08,1.1,0.8,M,-33.1,M,,*76
$GPRMC,231140,A,3246.2222,N,11712.4086,W,69.7,167.6,030602,13.0,E,A*0A
$GPGGA,231140,3246.2222,N,11712.4086,W,1,08,1.1,0.5,M,-33.1,M,,*79
$GPRMC,231142,A,3246.1842,N,11712.3988,W,70.3,167.8,030602,13.0,E,A*05
$GPGGA,231142,3246.1842,N,11712.3988,W,1,08,1.6,0.1,M,-33.2,M,,*74
$GPRMC,231144,A,3246.1454,N,11712.3889,W,71.4,167.9,030602,13.0,E,A*0F
$GPGGA,231144,3246.1454,N,11712.3889,W,1,08,1.2,0.1,M,-33.2,M,,*7D
$GPRMC,231146,A,3246.1069,N,11712.3790,W,70.3,167.7,030602,13.0,E,A*08
$GPGGA,231146,3246.1069,N,11712.3790,W,1,08,1.2,0.4,M,-33.2,M,,*77
$GPRMC,231148,A,3246.0691,N,11712.3692,W,69.4,167.7,030602,13.0,E,A*0A
$GPGGA,231148,3246.0691,N,11712.3692,W,1,08,1.2,0.8,M,-33.2,M,,*76
$GPRMC,231150,A,3246.0313,N,11712.3596,W,69.5,168.0,030602,13.0,E,A*02
$GPGGA,231150,3246.0313,N,11712.3596,W,1,08,1.2,1.1,M,-33.2,M,,*7F
$GPRMC,231152,A,3245.9938,N,11712.3502,W,68.9,167.9,030602,13.0,E,A*0F
$GPGGA,231152,3245.9938,N,11712.3502,W,1,08,1.2,1.4,M,-33.2,M,,*7C
$GPRMC,231154,A,3245.9562,N,11712.3408,W,68.9,168.0,030602,13.0,E,A*07
$GPGGA,231154,3245.9562,N,11712.3408,W,1,08,0.9,2.0,M,-33.2,M,,*7F
$GPRMC,231156,A,3245.9180,N,11712.3312,W,70.1,167.9,030602,13.0,E,A*06
$GPGGA,231156,3245.9180,N,11712.3312,W,1,08,1.1,2.6,M,-33.2,M,,*76
$GPRMC,231158,A,3245.8795,N,11712.3214,W,70.7,167.8,030602,13.0,E,A*0B
$GPGGA,231158,3245.8795,N,11712.3214,W,1,08,1.2,3.3,M,-33.2,M,,*7B
$GPRMC,231200,A,3245.8411,N,11712.3115,W,70.5,167.8,030602,13.0,E,A*0A
$GPGGA,231200,3245.8411,N,11712.3115,W,1,08,1.2,4.0,M,-33.2,M,,*7C
$GPRMC,231202,A,3245.8024,N,11712.3016,W,71.1,167.8,030602,13.0,E,A*0D
$GPGGA,231202,3245.8024,N,11712.3016,W,1,08,1.2,4.8,M,-33.2,M,,*76
$GPRMC,231204,A,3245.7636,N,11712.2916,W,71.1,167.9,030602,13.0,E,A*08
$GPGGA,231204,3245.7636,N,11712.2916,W,1,08,1.2,5.6,M,-33.2,M,,*7D
$GPRMC,231206,A,3245.7254,N,11712.2820,W,70.0,167.9,030602,13.0,E,A*0E
$GPGGA,231206,3245.7254,N,11712.2820,W,1,08,1.2,6.3,M,-33.2,M,,*7D
$GPRMC,231208,A,3245.6877,N,11712.2725,W,69.1,168.0,030602,13.0,E,A*0F
$GPGGA,231208,3245.6877,N,11712.2725,W,1,09,0.9,6.5,M,-33.2,M,,*7E
$GPRMC,231210,A,3245.6498,N,11712.2628,W,70.1,167.7,030602,13.0,E,A*07
$GPGGA,231210,3245.6498,N,11712.2628,W,1,09,0.9,6.2,M,-33.2,M,,*71
$GPRMC,231212,A,3245.6111,N,11712.2529,W,71.5,167.9,030602,13.0,E,A*08
$GPGGA,231212,3245.6111,N,11712.2529,W,1,09,0.9,5.2,M,-33.2,M,,*76
$GPRMC,231214,A,3245.5720,N,11712.2431,W,71.7,168.0,030602,13.0,E,A*05
$GPGGA,231214,3245.5720,N,11712.2431,W,1,09,0.9,3.6,M,-33.2,M,,*7D
$GPRMC,231216,A,3245.5329,N,11712.2333,W,71.7,168.0,030602,13.0,E,A*0F
$GPGGA,231216,3245.5329,N,11712.2333,W,1,09,0.9,2.5,M,-33.2,M,,*75
$GPRMC,231218,A,3245.4937,N,11712.2235,W,72.1,168.1,030602,13.0,E,A*06
$GPGGA,231218,3245.4937,N,11712.2235,W,1,09,2.2,2.0,M,-33.2,M,,*74
$GPRMC,231220,A,3245.4542,N,11712.2135,W,71.7,167.4,030602,13.0,E,A*0F
$GPGGA,231220,3245.4542,N,11712.2135,W,1,09,1.2,2.0,M,-33.2,M,,*71
$GPRMC,231222,A,3245.4170,N,11712.2000,W,68.8,161.6,030602,13.0,E,A*0C
$GPGGA,231222,3245.4170,N,11712.2000,W,1,08,1.3,3.4,M,-33.2,M,,*74
$GPRMC,231224,A,3245.3826,N,11712.1828,W,66.6,155.4,030602,13.0,E,A*03
$GPGGA,231224,3245.3826,N,11712.1828,W,1,08,1.0,5.0,M,-33.2,M,,*7F
$GPRMC,231226,A,3245.3499,N,11712.1623,W,66.0,151.0,030602,13.0,E,A*0A
$GPGGA,231226,3245.3499,N,11712.1623,W,1,08,1.0,7.0,M,-33.2,M,,*72
$GPRMC,231228,A,3245.3199,N,11712.1380,W,65.0,143.5,030602,13.0,E,A*08
$GPGGA,231228,3245.3199,N,11712.1380,W,1,09,0.9,8.3,M,-33.2,M,,*70
$GPRMC,231230,A,3245.2941,N,11712.1109,W,60.3,136.9,030602,13.0,E,A*06
$GPGGA,231230,3245.2941,N,11712.1109,W,1,09,0.9,8.9,M,-33.2,M,,*7C
$GPRMC,231232,A,3245.2732,N,11712.0841,W,53.9,131.6,030602,13.0,E,A*08
$GPGGA,231232,3245.2732,N,11712.0841,W,1,09,0.9,9.1,M,-33.2,M,,*79
$GPRMC,231234,A,3245.2550,N,11712.0586,W,50.0,130.3,030602,13.0,E,A*00
$GPGGA,231234,3245.2550,N,11712.0586,W,1,09,0.8,9.2,M,-33.2,M,,*7D
$GPRMC,231236,A,3245.2364,N,11712.0338,W,50.2,132.2,030602,13.0,E,A*01
$GPGGA,231236,3245.2364,N,11712.0338,W,1,09,0.8,9.4,M,-33.2,M,,*7B
$GPRMC,231238,A,3245.2190,N,11712.0108,W,45.9,131.4,030602,13.0,E,A*0D
$GPGGA,231238,3245.2190,N,11712.0108,W,1,09,0.8,9.5,M,-33.2,M,,*7C
$GPRMC,231240,A,3245.2031,N,11711.9886,W,43.2,130.6,030602,13.0,E,A*03
$GPGGA,231240,3245.2031,N,11711.9886,W,1,09,0.8,9.5,M,-33.2,M,,*7C
$GPRMC,231242,A,3245.1872,N,11711.9666,W,44.3,130.5,030602,13.0,E,A*08
$GPGGA,231242,3245.1872,N,11711.9666,W,1,09,0.8,9.5,M,-33.2,M,,*72
$GPRMC,231244,A,3245.1701,N,11711.9442,W,46.2,133.3,030602,13.0,E,A*07
$GPGGA,231244,3245.1701,N,11711.9442,W,1,09,0.9,9.4,M,-33.2,M,,*7B
$GPRMC,231246,A,3245.1508,N,11711.9225,W,48.6,137.2,030602,13.0,E,A*06
$GPGGA,231246,3245.1508,N,11711.9225,W,1,09,0.9,9.0,M,-33.2,M,,*71
$GPRMC,231248,A,3245.1301,N,11711.9005,W,50.2,138.7,030602,13.0,E,A*00
$GPGGA,231248,3245.1301,N,11711.9005,W,1,09,1.0,8.2,M,-33.2,M,,*7B
$GPRMC,231250,A,3245.1081,N,11711.8788,W,52.1,140.3,030602,13.0,E,A*0B
