$GPGGA,070953,5232.08,N,1317.6,E,1,07,1.3,50.6,M,39.2,M,,*78
$GPRMC,070953,A,5232.08,N,1317.6,E,4.8,200.0,030308,11.2,W,A*39
$GPGGA,070954,5232.08,N,1317.6,E,1,07,1.3,50.6,M,39.2,M,,*7f
$GPRMC,070954,A,5232.08,N,1317.6,E,12.6,200.0,030308,11.2,W,A*07
$GPGGA,070955,5232.08,N,1317.6,E,1,07,1.3,50.6,M,39.2,M,,*7e
$GPRMC,070955,A,5232.08,N,1317.6,E,15.6,211.0,030308,11.2,W,A*01
$GPGGA,070956,5232.08,N,1317.59,E,1,07,1.3,50.6,M,39.2,M,,*47
$GPRMC,070956,A,5232.08,N,1317.59,E,14.7,270.0,030308,11.2,W,A*3f
$GPGGA,070957,5232.07,N,1317.59,E,1,07,1.3,50.6,M,39.2,M,,*49
$GPRMC,070957,A,5232.07,N,1317.59,E,23.6,180.0,030308,11.2,W,A*38
$GPGGA,070958,5232.06,N,1317.59,E,1,07,1.3,50.6,M,39.2,M,,*47
$GPRMC,070958,A,5232.06,N,1317.59,E,28.2,180.0,030308,11.2,W,A*39
$GPGGA,070959,5232.06,N,1317.59,E,1,07,1.3,50.6,M,39.2,M,,*46
$GPRMC,070959,A,5232.06,N,1317.59,E,8.6,180.0,030308,11.2,W,A*0e
$GPGGA,071000,5232.05,N,1317.59,E,1,07,1.3,50.6,M,39.2,M,,*41
$GPRMC,071000,A,5232.05,N,1317.59,E,9.9,180.0,030308,11.2,W,A*07
$GPGGA,071001,5232.05,N,1317.6,E,1,07,1.3,50.6,M,39.2,M,,*7a
$GPRMC,071001,A,5232.05,N,1317.6,E,9.8,89.0,030308,11.2,W,A*05
$GPGGA,071002,5232.05,N,1317.6,E,1,07,1.3,50.6,M,39.2,M,,*79
$GPRMC,071002,A,5232.05,N,1317.6,E,2.8,89.0,030308,11.2,W,A*0d
$GPGGA,071003,5232.05,N,1317.6,E,1,07,1.3,50.6,M,39.2,M,,*78
$GPRMC,071003,A,5232.05,N,1317.6,E,3.1,89.0,030308,11.2,W,A*04
$GPGGA,071004,5232.05,N,1317.6,E,1,07,1.3,50.6,M,39.2,M,,*7f
$GPRMC,071004,A,5232.05,N,1317.6,E,2.8,89.0,030308,11.2,W,A*0b
$GPGGA,071005,5232.05,N,1317.6,E,1,07,1.3,50.6,M,39.2,M,,*7e
$GPRMC,071005,A,5232.05,N,1317.6,E,3.6,89.0,030308,11.2,W,A*05
$GPGGA,071006,5232.05,N,1317.6,E,1,07,1.3,50.6,M,39.2,M,,*7d
$GPRMC,071006,A,5232.05,N,1317.6,E,3.1,89.0,030308,11.2,W,A*01
$GPGGA,071007,5232.05,N,1317.6,E,1,07,1.3,50.6,M,39.2,M,,*7c
$GPRMC,071007,A,5232.05,N,1317.6,E,1.2,89.0,030308,11.2,W,A*01
$GPGGA,071008,5232.05,N,1317.6,E,1,07,1.3,50.6,M,39.2,M,,*73
$GPRMC,071008,A,5232.05,N,1317.6,E,3.6,180.0,030308,11.2,W,A*30
$GPGGA,071009,5232.05,N,1317.6,E,1,07,1.3,50.6,M,39.2,M,,*72
$GPRMC,071009,A,5232.05,N,1317.6,E,3.1,180.0,030308,11.2,W,A*36
$GPGGA,071010,5232.04,N,1317.62,E,1,07,1.3,50.6,M,39.2,M,,*49
$GPRMC,071010,A,5232.04,N,1317.62,E,33.8,129.0,030308,11.2,W,A*34
$GPGGA,071011,5232.04,N,1317.62,E,1,07,1.3,50.6,M,39.2,M,,*48
$GPRMC,071011,A,5232.04,N,1317.62,E,6.7,129.0,030308,11.2,W,A*0c
$GPGGA,071012,5232.04,N,1317.62,E,1,07,1.3,50.6,M,39.2,M,,*4b
$GPRMC,071012,A,5232.04,N,1317.62,E,8.5,129.0,030308,11.2,W,A*03
$GPGGA,071013,5232.03,N,1317.62,E,1,07,1.3,50.6,M,39.2,M,,*4d
$GPRMC,071013,A,5232.03,N,1317.62,E,7.7,148.0,030308,11.2,W,A*0f
$GPGGA,071014,5232.03,N,1317.62,E,1,07,1.3,50.6,M,39.2,M,,*4a
$GPRMC,071014,A,5232.03,N,1317.62,E,9.8,148.0,030308,11.2,W,A*09
$GPGGA,071015,5232.03,N,1317.62,E,1,07,1.3,50.6,M,39.2,M,,*4b
$GPRMC,071015,A,5232.03,N,1317.62,E,1.4,148.0,030308,11.2,W,A*0c
$GPGGA,071016,5232.02,N,1317.63,E,1,07,1.3,50.6,M,39.2,M,,*48
$GPRMC,071016,A,5232.02,N,1317.63,E,39.9,163.0,030308,11.2,W,A*30
$GPGGA,071017,5232.02,N,1317.63,E,1,07,1.3,50.6,M,39.2,M,,*49
$GPRMC,071017,A,5232.02,N,1317.63,E,11.5,89.0,030308,11.2,W,A*02
$GPGGA,071018,5232.02,N,1317.63,E,1,07,1.3,50.6,M,39.2,M,,*46
$GPRMC,071018,A,5232.02,N,1317.63,E,11.4,180.0,030308,11.2,W,A*34
$GPGGA,071019,5232.01,N,1317.64,E,1,07,1.3,50.6,M,39.2,M,,*43
$GPRMC,071019,A,5232.01,N,1317.64,E,21.3,148.0,030308,11.2,W,A*31
$GPGGA,071020,5232,N,1317.64,E,1,07,1.3,50.6,M,39.2,M,,*66
$GPRMC,071020,A,5232,N,1317.64,E,29.5,180.0,030308,11.2,W,A*1e
$GPGGA,071021,5231.99,N,1317.65,E,1,07,1.3,50.6,M,39.2,M,,*4b
$GPRMC,071021,A,5231.99,N,1317.65,E,38.6,163.0,030308,11.2,W,A*3d
$GPGGA,071022,5231.99,N,1317.65,E,1,07,1.3,50.6,M,39.2,M,,*48
$GPRMC,071022,A,5231.99,N,1317.65,E,39.9,148.0,030308,11.2,W,A*39
$GPGGA,071023,5231.97,N,1317.66,E,1,07,1.3,50.6,M,39.2,M,,*44
$GPRMC,071023,A,5231.97,N,1317.66,E,57.6,157.0,030308,11.2,W,A*3c
$GPGGA,071024,5231.96,N,1317.66,E,1,07,1.3,50.6,M,39.2,M,,*42
$GPRMC,071024,A,5231.96,N,1317.66,E,19.1,180.0,030308,11.2,W,A*3d
$GPGGA,071025,5231.94,N,1317.68,E,1,07,1.3,50.6,M,39.2,M,,*4f
$GPRMC,071025,A,5231.94,N,1317.68,E,88.4,148.0,030308,11.2,W,A*39
$GPGGA,071026,5231.94,N,1317.68,E,1,07,1.3,50.6,M,39.2,M,,*4c
$GPRMC,071026,A,5231.94,N,1317.68,E,4.9,180.0,030308,11.2,W,A*07
$GPGGA,071027,5231.93,N,1317.69,E,1,07,1.3,50.6,M,39.2,M,,*4b
$GPRMC,071027,A,5231.93,N,1317.69,E,25.2,148.0,030308,11.2,W,A*3c
$GPGGA,071028,5231.91,N,1317.7,E,1,07,1.3,50.6,M,39.2,M,,*7e
$GPRMC,071028,A,5231.91,N,1317.7,E,82.2,157.0,030308,11.2,W,A*0a
$GPGGA,071029,5231.9,N,1317.71,E,1,07,1.3,50.6,M,39.2,M,,*7f
$GPRMC,071029,A,5231.9,N,1317.71,E,67.1,157.0,030308,11.2,W,A*03
$GPGGA,071030,5231.88,N,1317.72,E,1,07,1.3,50.6,M,39.2,M,,*4d
$GPRMC,071030,A,5231.88,N,1317.72,E,41.0,163.0,030308,11.2,W,A*33
$GPGGA,071031,5231.87,N,1317.72,E,1,07,1.3,50.6,M,39.2,M,,*43
$GPRMC,071031,A,5231.87,N,1317.72,E,43.3,162.0,030308,11.2,W,A*3d
$GPGGA,071032,5231.86,N,1317.73,E,1,07,1.3,50.6,M,39.2,M,,*40
$GPRMC,071032,A,5231.86,N,1317.73,E,46.9,163.0,030308,11.2,W,A*30
$GPGGA,071033,5231.86,N,1317.73,E,1,07,1.3,50.6,M,39.2,M,,*41
$GPRMC,071033,A,5231.86,N,1317.73,E,6.7,163.0,030308,11.2,W,A*0b
$GPGGA,071034,5231.85,N,1317.73,E,1,07,1.3,50.6,M,39.2,M,,*45
$GPRMC,071034,A,5231.85,N,1317.73,E,30.4,180.0,030308,11.2,W,A*34
$GPGGA,071035,5231.85,N,1317.74,E,1,07,1.3,50.6,M,39.2,M,,*43
$GPRMC,071035,A,5231.85,N,1317.74,E,2.8,89.0,030308,11.2,W,A*37
$GPGGA,071036,5231.82,N,1317.74,E,1,07,1.3,50.6,M,39.2,M,,*47
$GPRMC,071036,A,5231.82,N,1317.74,E,92.4,171.0,030308,11.2,W,A*30
$GPGGA,071037,5231.8,N,1317.75,E,1,07,1.3,50.6,M,39.2,M,,*75
$GPRMC,071037,A,5231.8,N,1317.75,E,84.6,171.0,030308,11.2,W,A*07
$GPGGA,071038,5231.79,N,1317.75,E,1,07,1.3,50.6,M,39.2,M,,*4c
$GPRMC,071038,A,5231.79,N,1317.75,E,17.8,180.0,030308,11.2,W,A*34
$GPGGA,071039,5231.79,N,1317.75,E,1,07,1.3,50.6,M,39.2,M,,*4d
$GPRMC,071039,A,5231.79,N,1317.75,E,19.4,89.0,030308,11.2,W,A*0f
$GPGGA,071040,5231.78,N,1317.76,E,1,07,1.3,50.6,M,39.2,M,,*41
$GPRMC,071040,A,5231.78,N,1317.76,E,60.1,168.0,030308,11.2,W,A*36
$GPGGA,071041,5231.77,N,1317.76,E,1,07,1.3,50.6,M,39.2,M,,*4f
$GPRMC,071041,A,5231.77,N,1317.76,E,13.4,180.0,030308,11.2,W,A*3f
$GPGGA,071042,5231.76,N,1317.77,E,1,07,1.3,50.6,M,39.2,M,,*4c
$GPRMC,071042,A,5231.76,N,1317.77,E,33.1,148.0,030308,11.2,W,A*3f
$GPGGA,071043,5231.76,N,1317.77,E,1,07,1.3,50.6,M,39.2,M,,*4d
$GPRMC,071043,A,5231.76,N,1317.77,E,19.1,180.0,030308,11.2,W,A*32
$GPGGA,071044,5231.75,N,1317.77,E,1,07,1.3,50.6,M,39.2,M,,*49
$GPRMC,071044,A,5231.75,N,1317.77,E,23.9,148.0,030308,11.2,W,A*33
$GPGGA,071045,5231.74,N,1317.78,E,1,07,1.3,50.6,M,39.2,M,,*46
$GPRMC,071045,A,5231.74,N,1317.78,E,47.6,148.0,030308,11.2,W,A*31
$GPGGA,071046,5231.74,N,1317.78,E,1,07,1.3,50.6,M,39.2,M,,*45
$GPRMC,071046,A,5231.74,N,1317.78,E,12.6,148.0,030308,11.2,W,A*32
$GPGGA,071047,5231.73,N,1317.79,E,1,07,1.3,50.6,M,39.2,M,,*42
$GPRMC,071047,A,5231.73,N,1317.79,E,11.5,148.0,030308,11.2,W,A*35
$GPGGA,071048,5231.73,N,1317.79,E,1,07,1.3,50.6,M,39.2,M,,*4d
$GPRMC,071048,A,5231.73,N,1317.79,E,14.2,148.0,030308,11.2,W,A*38
$GPGGA,071049,5231.73,N,1317.79,E,1,07,1.3,50.6,M,39.2,M,,*4c
$GPRMC,071049,A,5231.73,N,1317.79,E,11.0,180.0,030308,11.2,W,A*3a
$GPGGA,071050,5231.72,N,1317.79,E,1,07,1.3,50.6,M,39.2,M,,*45
$GPRMC,071050,A,5231.72,N,1317.79,E,20.2,180.0,030308,11.2,W,A*33
$GPGGA,071051,5231.71,N,1317.8,E,1,07,1.3,50.6,M,39.2,M,,*71
$GPRMC,071051,A,5231.71,N,1317.8,E,50.4,163.0,030308,11.2,W,A*0b
$GPGGA,071052,5231.66,N,1317.81,E,1,07,1.3,50.6,M,39.2,M,,*45
$GPRMC,071052,A,5231.66,N,1317.81,E,178.1,167.0,030308,11.2,W,A*05
$GPGGA,071053,5231.62,N,1317.83,E,1,07,1.3,50.6,M,39.2,M,,*42
$GPRMC,071053,A,5231.62,N,1317.83,E,150.3,170.0,030308,11.2,W,A*0c
$GPGGA,071054,5231.59,N,1317.83,E,1,07,1.3,50.6,M,39.2,M,,*4d
$GPRMC,071054,A,5231.59,N,1317.83,E,107.5,173.0,030308,11.2,W,A*04
$GPGGA,071055,5231.54,N,1317.84,E,1,07,1.3,50.6,M,39.2,M,,*46
$GPRMC,071055,A,5231.54,N,1317.84,E,164.9,171.0,030308,11.2,W,A*04
$GPGGA,071056,5231.53,N,1317.85,E,1,07,1.3,50.6,M,39.2,M,,*43
$GPRMC,071056,A,5231.53,N,1317.85,E,46.1,163.0,030308,11.2,W,A*3b
$GPGGA,071057,5231.53,N,1317.85,E,1,07,1.3,50.6,M,39.2,M,,*42
$GPRMC,071057,A,5231.53,N,1317.85,E,17.5,163.0,030308,11.2,W,A*3a
$GPGGA,071058,5231.5,N,1317.86,E,1,07,1.3,50.6,M,39.2,M,,*7d
$GPRMC,071058,A,5231.5,N,1317.86,E,96.5,166.0,030308,11.2,W,A*09
$GPGGA,071059,5231.49,N,1317.86,E,1,07,1.3,50.6,M,39.2,M,,*44
$GPRMC,071059,A,5231.49,N,1317.86,E,18.1,180.0,030308,11.2,W,A*3a
$GPGGA,071100,5231.48,N,1317.87,E,1,07,1.3,50.6,M,39.2,M,,*49
$GPRMC,071100,A,5231.48,N,1317.87,E,50.0,162.0,030308,11.2,W,A*36
$GPGGA,071101,5231.48,N,1317.87,E,1,07,1.3,50.6,M,39.2,M,,*48
$GPRMC,071101,A,5231.48,N,1317.87,E,21.1,148.0,030308,11.2,W,A*38
$GPGGA,071102,5231.48,N,1317.87,E,1,07,1.3,50.6,M,39.2,M,,*4b
$GPRMC,071102,A,5231.48,N,1317.87,E,12.2,148.0,030308,11.2,W,A*38
$GPGGA,071103,5231.47,N,1317.87,E,1,07,1.3,50.6,M,39.2,M,,*45
$GPRMC,071103,A,5231.47,N,1317.87,E,16.2,180.0,030308,11.2,W,A*36
$GPGGA,071104,5231.46,N,1317.89,E,1,07,1.3,50.6,M,39.2,M,,*4d
$GPRMC,071104,A,5231.46,N,1317.89,E,64.4,137.0,030308,11.2,W,A*31
$GPGGA,071105,5231.45,N,1317.9,E,1,07,1.3,50.6,M,39.2,M,,*77
$GPRMC,071105,A,5231.45,N,1317.9,E,21.7,129.0,030308,11.2,W,A*06
$GPGGA,071106,5231.42,N,1317.95,E,1,07,1.3,50.6,M,39.2,M,,*46
$GPRMC,071106,A,5231.42,N,1317.95,E,155.6,144.0,030308,11.2,W,A*0f
$GPGGA,071107,5231.4,N,1317.97,E,1,07,1.3,50.6,M,39.2,M,,*77
$GPRMC,071107,A,5231.4,N,1317.97,E,89.6,141.0,030308,11.2,W,A*0b
$GPGGA,071108,5231.38,N,1317.99,E,1,07,1.3,50.6,M,39.2,M,,*49
$GPRMC,071108,A,5231.38,N,1317.99,E,91.1,141.0,030308,11.2,W,A*3b
$GPGGA,071109,5231.37,N,1317.99,E,1,07,1.3,50.6,M,39.2,M,,*47
$GPRMC,071109,A,5231.37,N,1317.99,E,11.3,180.0,030308,11.2,W,A*32
$GPGGA,071110,5231.37,N,1318.01,E,1,07,1.3,50.6,M,39.2,M,,*41
$GPRMC,071110,A,5231.37,N,1318.01,E,33.2,129.0,030308,11.2,W,A*36
$GPGGA,071111,5231.36,N,1318.02,E,1,07,1.3,50.6,M,39.2,M,,*42
$GPRMC,071111,A,5231.36,N,1318.02,E,45.1,149.0,030308,11.2,W,A*31
$GPGGA,071112,5231.36,N,1318.02,E,1,07,1.3,50.6,M,39.2,M,,*41
$GPRMC,071112,A,5231.36,N,1318.02,E,10.5,89.0,030308,11.2,W,A*0b
$GPGGA,071113,5231.36,N,1318.02,E,1,07,1.3,50.6,M,39.2,M,,*40
$GPRMC,071113,A,5231.36,N,1318.02,E,5.8,89.0,030308,11.2,W,A*33
$GPGGA,071114,5231.35,N,1318.02,E,1,07,1.3,50.6,M,39.2,M,,*44
$GPRMC,071114,A,5231.35,N,1318.02,E,9.8,180.0,030308,11.2,W,A*03
$GPGGA,071115,5231.35,N,1318.02,E,1,07,1.3,50.6,M,39.2,M,,*45
$GPRMC,071115,A,5231.35,N,1318.02,E,0,180.0,030308,11.2,W,A*1d
$GPGGA,071116,5231.35,N,1318.02,E,1,07,1.3,50.6,M,39.2,M,,*46
$GPRMC,071116,A,5231.35,N,1318.02,E,6.6,180.0,030308,11.2,W,A*00
$GPGGA,071117,5231.35,N,1318.02,E,1,07,1.3,50.6,M,39.2,M,,*47
$GPRMC,071117,A,5231.35,N,1318.02,E,4.3,180.0,030308,11.2,W,A*06
$GPGGA,071118,5231.35,N,1318.02,E,1,07,1.3,50.6,M,39.2,M,,*48
$GPRMC,071118,A,5231.35,N,1318.02,E,6.6,180.0,030308,11.2,W,A*0e
$GPGGA,071119,5231.33,N,1318.02,E,1,07,1.3,50.6,M,39.2,M,,*4f
$GPRMC,071119,A,5231.33,N,1318.02,E,53.6,191.0,030308,11.2,W,A*39
$GPGGA,071120,5231.33,N,1318.02,E,1,07,1.3,50.6,M,39.2,M,,*45
$GPRMC,071120,A,5231.33,N,1318.02,E,28.0,180.0,030308,11.2,W,A*39
$GPGGA,071121,5231.33,N,1318.02,E,1,07,1.3,50.6,M,39.2,M,,*44
$GPRMC,071121,A,5231.33,N,1318.02,E,1.7,180.0,030308,11.2,W,A*04
$GPGGA,071122,5231.31,N,1318,E,1,07,1.3,50.6,M,39.2,M,,*69
$GPRMC,071122,A,5231.31,N,1318,E,77.5,211.0,030308,11.2,W,A*11
$GPGGA,071123,5231.3,N,1317.99,E,1,07,1.3,50.6,M,39.2,M,,*78
$GPRMC,071123,A,5231.3,N,1317.99,E,15.0,211.0,030308,11.2,W,A*01
$GPGGA,071124,5231.3,N,1317.99,E,1,07,1.3,50.6,M,39.2,M,,*7f
$GPRMC,071124,A,5231.3,N,1317.99,E,7.7,211.0,030308,11.2,W,A*32
$GPGGA,071125,5231.3,N,1317.99,E,1,07,1.3,50.6,M,39.2,M,,*7e
$GPRMC,071125,A,5231.3,N,1317.99,E,4.9,211.0,030308,11.2,W,A*3e
$GPGGA,071126,5231.28,N,1317.99,E,1,07,1.3,50.6,M,39.2,M,,*44
$GPRMC,071126,A,5231.28,N,1317.99,E,63.4,191.0,030308,11.2,W,A*33
$GPGGA,071127,5231.28,N,1317.99,E,1,07,1.3,50.6,M,39.2,M,,*45
$GPRMC,071127,A,5231.28,N,1317.99,E,nan,191.0,030308,11.2,W,A*4c
$GPGGA,071128,5231.28,N,1317.98,E,1,07,1.3,50.6,M,39.2,M,,*4b
$GPRMC,071128,A,5231.28,N,1317.98,E,29.6,211.0,030308,11.2,W,A*3b
$GPGGA,071129,5231.26,N,1317.97,E,1,07,1.3,50.6,M,39.2,M,,*4b
$GPRMC,071129,A,5231.26,N,1317.97,E,49.0,201.0,030308,11.2,W,A*3a
$GPGGA,071130,5231.25,N,1317.96,E,1,07,1.3,50.6,M,39.2,M,,*41
$GPRMC,071130,A,5231.25,N,1317.96,E,35.1,211.0,030308,11.2,W,A*3b
$GPGGA,071131,5231.25,N,1317.96,E,1,07,1.3,50.6,M,39.2,M,,*40
$GPRMC,071131,A,5231.25,N,1317.96,E,15.4,180.0,030308,11.2,W,A*36
$GPGGA,071132,5231.24,N,1317.96,E,1,07,1.3,50.6,M,39.2,M,,*42
$GPRMC,071132,A,5231.24,N,1317.96,E,15.9,180.0,030308,11.2,W,A*39
$GPGGA,071133,5231.24,N,1317.96,E,1,07,1.3,50.6,M,39.2,M,,*43
$GPRMC,071133,A,5231.24,N,1317.96,E,19.2,180.0,030308,11.2,W,A*3f
$GPGGA,071134,5231.24,N,1317.96,E,1,07,1.3,50.6,M,39.2,M,,*44
$GPRMC,071134,A,5231.24,N,1317.96,E,9.1,180.0,030308,11.2,W,A*0a
$GPGGA,071135,5231.24,N,1317.96,E,1,07,1.3,50.6,M,39.2,M,,*45
$GPRMC,071135,A,5231.24,N,1317.96,E,5.8,180.0,030308,11.2,W,A*0e
$GPGGA,071136,5231.23,N,1317.96,E,1,07,1.3,50.6,M,39.2,M,,*41
$GPRMC,071136,A,5231.23,N,1317.96,E,19.9,180.0,030308,11.2,W,A*36
$GPGGA,071137,5231.22,N,1317.96,E,1,07,1.3,50.6,M,39.2,M,,*41
$GPRMC,071137,A,5231.22,N,1317.96,E,17.4,180.0,030308,11.2,W,A*35
$GPGGA,071138,5231.22,N,1317.96,E,1,07,1.3,50.6,M,39.2,M,,*4e
$GPRMC,071138,A,5231.22,N,1317.96,E,13.2,180.0,030308,11.2,W,A*38
$GPGGA,071139,5231.21,N,1317.96,E,1,07,1.3,50.6,M,39.2,M,,*4c
$GPRMC,071139,A,5231.21,N,1317.96,E,29.7,180.0,030308,11.2,W,A*36
$GPGGA,071140,5231.21,N,1317.96,E,1,07,1.3,50.6,M,39.2,M,,*42
$GPRMC,071140,A,5231.21,N,1317.96,E,15.7,180.0,030308,11.2,W,A*37
$GPGGA,071141,5231.21,N,1317.96,E,1,07,1.3,50.6,M,39.2,M,,*43
$GPRMC,071141,A,5231.21,N,1317.96,E,19.0,180.0,030308,11.2,W,A*3d
$GPGGA,071142,5231.19,N,1317.96,E,1,07,1.3,50.6,M,39.2,M,,*4b
$GPRMC,071142,A,5231.19,N,1317.96,E,45.7,180.0,030308,11.2,W,A*3b
$GPGGA,071143,5231.19,N,1317.97,E,1,07,1.3,50.6,M,39.2,M,,*4b
$GPRMC,071143,A,5231.19,N,1317.97,E,20.0,149.0,030308,11.2,W,A*3a
$GPGGA,071144,5231.18,N,1317.97,E,1,07,1.3,50.6,M,39.2,M,,*4d
$GPRMC,071144,A,5231.18,N,1317.97,E,17.5,180.0,030308,11.2,W,A*38
$GPGGA,071145,5231.18,N,1317.97,E,1,07,1.3,50.6,M,39.2,M,,*4c
$GPRMC,071145,A,5231.18,N,1317.97,E,0,180.0,030308,11.2,W,A*14
$GPGGA,071146,5231.18,N,1317.97,E,1,07,1.3,50.6,M,39.2,M,,*4f
$GPRMC,071146,A,5231.18,N,1317.97,E,17.8,180.0,030308,11.2,W,A*37
$GPGGA,071147,5231.17,N,1317.97,E,1,07,1.3,50.6,M,39.2,M,,*41
$GPRMC,071147,A,5231.17,N,1317.97,E,20.0,180.0,030308,11.2,W,A*35
$GPGGA,071148,5231.17,N,1317.98,E,1,07,1.3,50.6,M,39.2,M,,*41
$GPRMC,071148,A,5231.17,N,1317.98,E,9.3,89.0,030308,11.2,W,A*35
$GPGGA,071149,5231.17,N,1317.98,E,1,07,1.3,50.6,M,39.2,M,,*40
$GPRMC,071149,A,5231.17,N,1317.98,E,11.9,89.0,030308,11.2,W,A*07
$GPGGA,071150,5231.17,N,1317.99,E,1,07,1.3,50.6,M,39.2,M,,*49
$GPRMC,071150,A,5231.17,N,1317.99,E,6.7,89.0,030308,11.2,W,A*36
$GPGGA,071151,5231.17,N,1317.99,E,1,07,1.3,50.6,M,39.2,M,,*48
$GPRMC,071151,A,5231.17,N,1317.99,E,10.8,89.0,030308,11.2,W,A*0f
$GPGGA,071152,5231.17,N,1317.99,E,1,07,1.3,50.6,M,39.2,M,,*4b
$GPRMC,071152,A,5231.17,N,1317.99,E,8.0,89.0,030308,11.2,W,A*3d
$GPGGA,071153,5231.17,N,1318,E,1,07,1.3,50.6,M,39.2,M,,*6b
$GPRMC,071153,A,5231.17,N,1318,E,12.4,89.0,030308,11.2,W,A*22
$GPGGA,071154,5231.16,N,1318.02,E,1,07,1.3,50.6,M,39.2,M,,*41
$GPRMC,071154,A,5231.16,N,1318.02,E,44.2,118.0,030308,11.2,W,A*34
$GPGGA,071155,5231.16,N,1318.03,E,1,07,1.3,50.6,M,39.2,M,,*41
$GPRMC,071155,A,5231.16,N,1318.03,E,39.5,130.0,030308,11.2,W,A*33
$GPGGA,071156,5231.15,N,1318.07,E,1,07,1.3,50.6,M,39.2,M,,*45
$GPRMC,071156,A,5231.15,N,1318.07,E,101.2,114.0,030308,11.2,W,A*0c
$GPGGA,071157,5231.12,N,1318.13,E,1,07,1.3,50.6,M,39.2,M,,*46
$GPRMC,071157,A,5231.12,N,1318.13,E,152.2,123.0,030308,11.2,W,A*0d
$GPGGA,071158,5231.08,N,1318.26,E,1,07,1.3,50.6,M,39.2,M,,*44
$GPRMC,071158,A,5231.08,N,1318.26,E,326.0,117.0,030308,11.2,W,A*0b
$GPGGA,071159,5231.07,N,1318.29,E,1,07,1.3,50.6,M,39.2,M,,*45
$GPRMC,071159,A,5231.07,N,1318.29,E,59.8,112.0,030308,11.2,W,A*3c
$GPGGA,071200,5231.07,N,1318.31,E,1,07,1.3,50.6,M,39.2,M,,*43
$GPRMC,071200,A,5231.07,N,1318.31,E,58.5,112.0,030308,11.2,W,A*36
$GPGGA,071201,5231.06,N,1318.32,E,1,07,1.3,50.6,M,39.2,M,,*40
$GPRMC,071201,A,5231.06,N,1318.32,E,13.5,148.0,030308,11.2,W,A*35
$GPGGA,071202,5231.06,N,1318.34,E,1,07,1.3,50.6,M,39.2,M,,*45
$GPRMC,071202,A,5231.06,N,1318.34,E,40.7,89.0,030308,11.2,W,A*08
$GPGGA,071203,5231.06,N,1318.34,E,1,07,1.3,50.6,M,39.2,M,,*44
$GPRMC,071203,A,5231.06,N,1318.34,E,21.4,148.0,030308,11.2,W,A*31
$GPGGA,071204,5231.06,N,1318.35,E,1,07,1.3,50.6,M,39.2,M,,*42
$GPRMC,071204,A,5231.06,N,1318.35,E,6.7,89.0,030308,11.2,W,A*3d
$GPGGA,071205,5231.05,N,1318.35,E,1,07,1.3,50.6,M,39.2,M,,*40
$GPRMC,071205,A,5231.05,N,1318.35,E,24.8,148.0,030308,11.2,W,A*3c
$GPGGA,071206,5231.05,N,1318.37,E,1,07,1.3,50.6,M,39.2,M,,*41
$GPRMC,071206,A,5231.05,N,1318.37,E,31.5,89.0,030308,11.2,W,A*08
$GPGGA,071207,5231.04,N,1318.38,E,1,07,1.3,50.6,M,39.2,M,,*4e
$GPRMC,071207,A,5231.04,N,1318.38,E,44.1,130.0,030308,11.2,W,A*32
$GPGGA,071208,5231.04,N,1318.4,E,1,07,1.3,50.6,M,39.2,M,,*7e
$GPRMC,071208,A,5231.04,N,1318.4,E,33.0,118.0,030308,11.2,W,A*09
$GPGGA,071209,5231.03,N,1318.43,E,1,07,1.3,50.6,M,39.2,M,,*4b
$GPRMC,071209,A,5231.03,N,1318.43,E,56.3,112.0,030308,11.2,W,A*36
$GPGGA,071210,5231,N,1318.53,E,1,07,1.3,50.6,M,39.2,M,,*6f
$GPRMC,071210,A,5231,N,1318.53,E,252.6,115.0,030308,11.2,W,A*26
$GPGGA,071211,5230.98,N,1318.57,E,1,07,1.3,50.6,M,39.2,M,,*44
$GPRMC,071211,A,5230.98,N,1318.57,E,102.4,125.0,030308,11.2,W,A*0a
$GPGGA,071212,5230.97,N,1318.63,E,1,07,1.3,50.6,M,39.2,M,,*4f
$GPRMC,071212,A,5230.97,N,1318.63,E,154.6,116.0,030308,11.2,W,A*00
$GPGGA,071213,5230.91,N,1318.8,E,1,07,1.3,50.6,M,39.2,M,,*75
$GPRMC,071213,A,5230.91,N,1318.8,E,388.8,117.0,030308,11.2,W,A*36
$GPGGA,071214,5230.89,N,1318.86,E,1,07,1.3,50.6,M,39.2,M,,*4d
$GPRMC,071214,A,5230.89,N,1318.86,E,120.5,118.0,030308,11.2,W,A*0c
$GPGGA,071215,5230.89,N,1318.88,E,1,07,1.3,50.6,M,39.2,M,,*42
$GPRMC,071215,A,5230.89,N,1318.88,E,54.3,118.0,030308,11.2,W,A*37
$GPGGA,071216,5230.88,N,1318.91,E,1,07,1.3,50.6,M,39.2,M,,*48
$GPRMC,071216,A,5230.88,N,1318.91,E,76.4,123.0,030308,11.2,W,A*32
$GPGGA,071217,5230.88,N,1318.92,E,1,07,1.3,50.6,M,39.2,M,,*4a
$GPRMC,071217,A,5230.88,N,1318.92,E,21.8,89.0,030308,11.2,W,A*0f
$GPGGA,071218,5230.87,N,1318.94,E,1,07,1.3,50.6,M,39.2,M,,*4c
$GPRMC,071218,A,5230.87,N,1318.94,E,59.6,112.0,030308,11.2,W,A*3b
$GPGGA,071219,5230.85,N,1318.99,E,1,07,1.3,50.6,M,39.2,M,,*42
$GPRMC,071219,A,5230.85,N,1318.99,E,126.3,121.0,030308,11.2,W,A*09
$GPGGA,071220,5230.85,N,1319.01,E,1,07,1.3,50.6,M,39.2,M,,*48
$GPRMC,071220,A,5230.85,N,1319.01,E,41.5,118.0,030308,11.2,W,A*3f
$GPGGA,071221,5230.84,N,1319.03,E,1,07,1.3,50.6,M,39.2,M,,*4a
$GPRMC,071221,A,5230.84,N,1319.03,E,37.2,118.0,030308,11.2,W,A*3b
$GPGGA,071222,5230.84,N,1319.03,E,1,07,1.3,50.6,M,39.2,M,,*49
$GPRMC,071222,A,5230.84,N,1319.03,E,18.2,89.0,030308,11.2,W,A*0c
$GPGGA,071223,5230.83,N,1319.04,E,1,07,1.3,50.6,M,39.2,M,,*48
$GPRMC,071223,A,5230.83,N,1319.04,E,21.4,148.0,030308,11.2,W,A*3d
$GPGGA,071224,5230.83,N,1319.04,E,1,07,1.3,50.6,M,39.2,M,,*4f
$GPRMC,071224,A,5230.83,N,1319.04,E,11.7,89.0,030308,11.2,W,A*06
$GPGGA,071225,5230.83,N,1319.05,E,1,07,1.3,50.6,M,39.2,M,,*4f
$GPRMC,071225,A,5230.83,N,1319.05,E,13.8,89.0,030308,11.2,W,A*0b
$GPGGA,071226,5230.83,N,1319.06,E,1,07,1.3,50.6,M,39.2,M,,*4f
$GPRMC,071226,A,5230.83,N,1319.06,E,30.9,129.0,030308,11.2,W,A*30
$GPGGA,071227,5230.83,N,1319.07,E,1,07,1.3,50.6,M,39.2,M,,*4f
$GPRMC,071227,A,5230.83,N,1319.07,E,23.3,89.0,030308,11.2,W,A*03
$GPGGA,071228,5230.83,N,1319.09,E,1,07,1.3,50.6,M,39.2,M,,*4e
$GPRMC,071228,A,5230.83,N,1319.09,E,24.6,89.0,030308,11.2,W,A*00
$GPGGA,071229,5230.82,N,1319.1,E,1,07,1.3,50.6,M,39.2,M,,*76
$GPRMC,071229,A,5230.82,N,1319.1,E,44.8,119.0,030308,11.2,W,A*08
$GPGGA,071230,5230.82,N,1319.12,E,1,07,1.3,50.6,M,39.2,M,,*4c
$GPRMC,071230,A,5230.82,N,1319.12,E,25.8,89.0,030308,11.2,W,A*0d
$GPGGA,071231,5230.82,N,1319.13,E,1,07,1.3,50.6,M,39.2,M,,*4c
$GPRMC,071231,A,5230.82,N,1319.13,E,21.5,89.0,030308,11.2,W,A*04
$GPGGA,071232,5230.82,N,1319.15,E,1,07,1.3,50.6,M,39.2,M,,*49
$GPRMC,071232,A,5230.82,N,1319.15,E,48.5,118.0,030308,11.2,W,A*37
$GPGGA,071233,5230.82,N,1319.16,E,1,07,1.3,50.6,M,39.2,M,,*4b
$GPRMC,071233,A,5230.82,N,1319.16,E,22.7,89.0,030308,11.2,W,A*02
$GPGGA,071234,5230.81,N,1319.19,E,1,07,1.3,50.6,M,39.2,M,,*40
$GPRMC,071234,A,5230.81,N,1319.19,E,85.1,105.0,030308,11.2,W,A*37
$GPGGA,071235,5230.8,N,1319.21,E,1,07,1.3,50.6,M,39.2,M,,*7b
$GPRMC,071235,A,5230.8,N,1319.21,E,38.8,118.0,030308,11.2,W,A*0f
$GPGGA,071236,5230.8,N,1319.22,E,1,07,1.3,50.6,M,39.2,M,,*7b
$GPRMC,071236,A,5230.8,N,1319.22,E,15.9,89.0,030308,11.2,W,A*38
$GPGGA,071237,5230.8,N,1319.22,E,1,07,1.3,50.6,M,39.2,M,,*7a
$GPRMC,071237,A,5230.8,N,1319.22,E,14.4,89.0,030308,11.2,W,A*35
$GPGGA,071238,5230.8,N,1319.23,E,1,07,1.3,50.6,M,39.2,M,,*74
$GPRMC,071238,A,5230.8,N,1319.23,E,11.7,148.0,030308,11.2,W,A*01
$GPGGA,071239,5230.8,N,1319.23,E,1,07,1.3,50.6,M,39.2,M,,*75
$GPRMC,071239,A,5230.8,N,1319.23,E,10.2,148.0,030308,11.2,W,A*04
$GPGGA,071240,5230.8,N,1319.24,E,1,07,1.3,50.6,M,39.2,M,,*7c
$GPRMC,071240,A,5230.8,N,1319.24,E,13.5,89.0,030308,11.2,W,A*35
$GPGGA,071241,5230.8,N,1319.24,E,1,07,1.3,50.6,M,39.2,M,,*7d
$GPRMC,071241,A,5230.8,N,1319.24,E,10.1,89.0,030308,11.2,W,A*33
$GPGGA,071242,5230.79,N,1319.25,E,1,07,1.3,50.6,M,39.2,M,,*49
$GPRMC,071242,A,5230.79,N,1319.25,E,12.4,149.0,030308,11.2,W,A*3d
$GPGGA,071243,5230.79,N,1319.25,E,1,07,1.3,50.6,M,39.2,M,,*48
$GPRMC,071243,A,5230.79,N,1319.25,E,2.6,149.0,030308,11.2,W,A*0f
$GPGGA,071244,5230.79,N,1319.25,E,1,07,1.3,50.6,M,39.2,M,,*4f
$GPRMC,071244,A,5230.79,N,1319.25,E,3.1,149.0,030308,11.2,W,A*0e
$GPGGA,071245,5230.79,N,1319.25,E,1,07,1.3,50.6,M,39.2,M,,*4e
$GPRMC,071245,A,5230.79,N,1319.25,E,3.6,149.0,030308,11.2,W,A*08
$GPGGA,071246,5230.79,N,1319.25,E,1,07,1.3,50.6,M,39.2,M,,*4d
$GPRMC,071246,A,5230.79,N,1319.25,E,2.8,89.0,030308,11.2,W,A*39
$GPGGA,071247,5230.79,N,1319.25,E,1,07,1.3,50.6,M,39.2,M,,*4c
$GPRMC,071247,A,5230.79,N,1319.25,E,2.6,89.0,030308,11.2,W,A*36
$GPGGA,071248,5230.79,N,1319.25,E,1,07,1.3,50.6,M,39.2,M,,*43
$GPRMC,071248,A,5230.79,N,1319.25,E,2.1,89.0,030308,11.2,W,A*3e
$GPGGA,071249,5230.79,N,1319.25,E,1,07,1.3,50.6,M,39.2,M,,*42
$GPRMC,071249,A,5230.79,N,1319.25,E,2.5,89.0,030308,11.2,W,A*3b
$GPGGA,071250,5230.79,N,1319.25,E,1,07,1.3,50.6,M,39.2,M,,*4a
$GPRMC,071250,A,5230.79,N,1319.25,E,1.4,89.0,030308,11.2,W,A*31
$GPGGA,071251,5230.79,N,1319.25,E,1,07,1.3,50.6,M,39.2,M,,*4b
$GPRMC,071251,A,5230.79,N,1319.25,E,2.8,89.0,030308,11.2,W,A*3f
$GPGGA,071252,5230.79,N,1319.25,E,1,07,1.3,50.6,M,39.2,M,,*48
$GPRMC,071252,A,5230.79,N,1319.25,E,2.2,89.0,030308,11.2,W,A*36
$GPGGA,071253,5230.79,N,1319.25,E,1,07,1.3,50.6,M,39.2,M,,*49
$GPRMC,071253,A,5230.79,N,1319.25,E,2.8,180.0,030308,11.2,W,A*05
$GPGGA,071254,5230.79,N,1319.25,E,1,07,1.3,50.6,M,39.2,M,,*4e
$GPRMC,071254,A,5230.79,N,1319.25,E,2.1,180.0,030308,11.2,W,A*0b
$GPGGA,071255,5230.79,N,1319.25,E,1,07,1.3,50.6,M,39.2,M,,*4f
$GPRMC,071255,A,5230.79,N,1319.25,E,2.8,180.0,030308,11.2,W,A*03
$GPGGA,071256,5230.79,N,1319.25,E,1,07,1.3,50.6,M,39.2,M,,*4c
$GPRMC,071256,A,5230.79,N,1319.25,E,2.5,180.0,030308,11.2,W,A*0d
$GPGGA,071257,5230.79,N,1319.25,E,1,07,1.3,50.6,M,39.2,M,,*4d
$GPRMC,071257,A,5230.79,N,1319.25,E,4.3,180.0,030308,11.2,W,A*0c
$GPGGA,071258,5230.79,N,1319.26,E,1,07,1.3,50.6,M,39.2,M,,*41
$GPRMC,071258,A,5230.79,N,1319.26,E,2.8,89.0,030308,11.2,W,A*35
$GPGGA,071259,5230.79,N,1319.26,E,1,07,1.3,50.6,M,39.2,M,,*40
$GPRMC,071259,A,5230.79,N,1319.26,E,1.7,89.0,030308,11.2,W,A*38
$GPGGA,071300,5230.79,N,1319.26,E,1,07,1.3,50.6,M,39.2,M,,*4d
$GPRMC,071300,A,5230.79,N,1319.26,E,2.8,89.0,030308,11.2,W,A*39
$GPGGA,071301,5230.79,N,1319.26,E,1,07,1.3,50.6,M,39.2,M,,*4c
$GPRMC,071301,A,5230.79,N,1319.26,E,1.7,89.0,030308,11.2,W,A*34
$GPGGA,071302,5230.78,N,1319.26,E,1,07,1.3,50.6,M,39.2,M,,*4e
$GPRMC,071302,A,5230.78,N,1319.26,E,5.1,180.0,030308,11.2,W,A*0c
$GPGGA,071303,5230.77,N,1319.26,E,1,07,1.3,50.6,M,39.2,M,,*40
$GPRMC,071303,A,5230.77,N,1319.26,E,21.6,180.0,030308,11.2,W,A*33
$GPGGA,071304,5230.77,N,1319.26,E,1,07,1.3,50.6,M,39.2,M,,*47
$GPRMC,071304,A,5230.77,N,1319.26,E,0,180.0,030308,11.2,W,A*1f
$GPGGA,071305,5230.77,N,1319.26,E,1,07,1.3,50.6,M,39.2,M,,*46
$GPRMC,071305,A,5230.77,N,1319.26,E,4.9,180.0,030308,11.2,W,A*0d
$GPGGA,071306,5230.77,N,1319.26,E,1,07,1.3,50.6,M,39.2,M,,*45
$GPRMC,071306,A,5230.77,N,1319.26,E,7.1,180.0,030308,11.2,W,A*05
$GPGGA,071307,5230.77,N,1319.25,E,1,07,1.3,50.6,M,39.2,M,,*47
$GPRMC,071307,A,5230.77,N,1319.25,E,4.9,270.0,030308,11.2,W,A*00
$GPGGA,071308,5230.77,N,1319.25,E,1,07,1.3,50.6,M,39.2,M,,*48
$GPRMC,071308,A,5230.77,N,1319.25,E,7.1,180.0,030308,11.2,W,A*08
$GPGGA,071309,5230.77,N,1319.25,E,1,07,1.3,50.6,M,39.2,M,,*49
$GPRMC,071309,A,5230.77,N,1319.25,E,4.3,180.0,030308,11.2,W,A*08
$GPGGA,071310,5230.77,N,1319.25,E,1,07,1.3,50.6,M,39.2,M,,*41
$GPRMC,071310,A,5230.77,N,1319.25,E,7.1,180.0,030308,11.2,W,A*01
$GPGGA,071311,5230.77,N,1319.25,E,1,07,1.3,50.6,M,39.2,M,,*40
$GPRMC,071311,A,5230.77,N,1319.25,E,4.3,180.0,030308,11.2,W,A*01
$GPGGA,071312,5230.76,N,1319.25,E,1,07,1.3,50.6,M,39.2,M,,*42
$GPRMC,071312,A,5230.76,N,1319.25,E,6.7,180.0,030308,11.2,W,A*05
$GPGGA,071313,5230.76,N,1319.25,E,1,07,1.3,50.6,M,39.2,M,,*43
$GPRMC,071313,A,5230.76,N,1319.25,E,5.1,180.0,030308,11.2,W,A*01
$GPGGA,071314,5230.76,N,1319.25,E,1,07,1.3,50.6,M,39.2,M,,*44
$GPRMC,071314,A,5230.76,N,1319.25,E,4.1,180.0,030308,11.2,W,A*07
$GPGGA,071315,5230.76,N,1319.25,E,1,07,1.3,50.6,M,39.2,M,,*45
$GPRMC,071315,A,5230.76,N,1319.25,E,4.3,180.0,030308,11.2,W,A*04
$GPGGA,071316,5230.76,N,1319.25,E,1,07,1.3,50.6,M,39.2,M,,*46
$GPRMC,071316,A,5230.76,N,1319.25,E,4.1,180.0,030308,11.2,W,A*05
$GPGGA,071317,5230.76,N,1319.25,E,1,07,1.3,50.6,M,39.2,M,,*47
$GPRMC,071317,A,5230.76,N,1319.25,E,2.5,180.0,030308,11.2,W,A*06
$GPGGA,071318,5230.76,N,1319.25,E,1,07,1.3,50.6,M,39.2,M,,*48
$GPRMC,071318,A,5230.76,N,1319.25,E,4.3,270.0,030308,11.2,W,A*05
$GPGGA,071319,5230.76,N,1319.25,E,1,07,1.3,50.6,M,39.2,M,,*49
$GPRMC,071319,A,5230.76,N,1319.25,E,4.1,270.0,030308,11.2,W,A*06
$GPGGA,071320,5230.76,N,1319.25,E,1,07,1.3,50.6,M,39.2,M,,*43
$GPRMC,071320,A,5230.76,N,1319.25,E,5.0,270.0,030308,11.2,W,A*0c
$GPGGA,071321,5230.76,N,1319.25,E,1,07,1.3,50.6,M,39.2,M,,*42
$GPRMC,071321,A,5230.76,N,1319.25,E,5.9,89.0,030308,11.2,W,A*30
$GPGGA,071322,5230.75,N,1319.25,E,1,07,1.3,50.6,M,39.2,M,,*42
$GPRMC,071322,A,5230.75,N,1319.25,E,6.6,180.0,030308,11.2,W,A*04
$GPGGA,071323,5230.75,N,1319.25,E,1,07,1.3,50.6,M,39.2,M,,*43
$GPRMC,071323,A,5230.75,N,1319.25,E,6.7,180.0,030308,11.2,W,A*04
$GPGGA,071324,5230.75,N,1319.25,E,1,07,1.3,50.6,M,39.2,M,,*44
$GPRMC,071324,A,5230.75,N,1319.25,E,6.7,180.0,030308,11.2,W,A*03
$GPGGA,071325,5230.74,N,1319.25,E,1,07,1.3,50.6,M,39.2,M,,*44
$GPRMC,071325,A,5230.74,N,1319.25,E,6.7,180.0,030308,11.2,W,A*03
$GPGGA,071326,5230.74,N,1319.25,E,1,07,1.3,50.6,M,39.2,M,,*47
$GPRMC,071326,A,5230.74,N,1319.25,E,6.8,180.0,030308,11.2,W,A*0f
$GPGGA,071327,5230.74,N,1319.25,E,1,07,1.3,50.6,M,39.2,M,,*46
$GPRMC,071327,A,5230.74,N,1319.25,E,7.1,180.0,030308,11.2,W,A*06
$GPGGA,071328,5230.74,N,1319.25,E,1,07,1.3,50.6,M,39.2,M,,*49
$GPRMC,071328,A,5230.74,N,1319.25,E,4.3,180.0,030308,11.2,W,A*08
$GPGGA,071329,5230.74,N,1319.25,E,1,07,1.3,50.6,M,39.2,M,,*48
$GPRMC,071329,A,5230.74,N,1319.25,E,7.1,180.0,030308,11.2,W,A*08
$GPGGA,071330,5230.74,N,1319.25,E,1,07,1.3,50.6,M,39.2,M,,*40
$GPRMC,071330,A,5230.74,N,1319.25,E,2.1,180.0,030308,11.2,W,A*05
$GPGGA,071331,5230.74,N,1319.26,E,1,07,1.3,50.6,M,39.2,M,,*42
$GPRMC,071331,A,5230.74,N,1319.26,E,5.6,89.0,030308,11.2,W,A*3f
$GPGGA,071332,5230.74,N,1319.26,E,1,07,1.3,50.6,M,39.2,M,,*41
$GPRMC,071332,A,5230.74,N,1319.26,E,2.1,89.0,030308,11.2,W,A*3c
$GPGGA,071333,5230.74,N,1319.26,E,1,07,1.3,50.6,M,39.2,M,,*40
$GPRMC,071333,A,5230.74,N,1319.26,E,4.9,89.0,030308,11.2,W,A*33
$GPGGA,071334,5230.74,N,1319.26,E,1,07,1.3,50.6,M,39.2,M,,*47
$GPRMC,071334,A,5230.74,N,1319.26,E,2.8,89.0,030308,11.2,W,A*33
$GPGGA,071335,5230.73,N,1319.26,E,1,07,1.3,50.6,M,39.2,M,,*41
$GPRMC,071335,A,5230.73,N,1319.26,E,4.9,180.0,030308,11.2,W,A*0a
$GPGGA,071336,5230.73,N,1319.26,E,1,07,1.3,50.6,M,39.2,M,,*42
$GPRMC,071336,A,5230.73,N,1319.26,E,2.8,180.0,030308,11.2,W,A*0e
$GPGGA,071337,5230.73,N,1319.27,E,1,07,1.3,50.6,M,39.2,M,,*42
$GPRMC,071337,A,5230.73,N,1319.27,E,5.7,89.0,030308,11.2,W,A*3e
$GPGGA,071338,5230.73,N,1319.27,E,1,07,1.3,50.6,M,39.2,M,,*4d
$GPRMC,071338,A,5230.73,N,1319.27,E,5.8,89.0,030308,11.2,W,A*3e
$GPGGA,071339,5230.73,N,1319.27,E,1,07,1.3,50.6,M,39.2,M,,*4c
$GPRMC,071339,A,5230.73,N,1319.27,E,6.3,89.0,030308,11.2,W,A*37
$GPGGA,071340,5230.73,N,1319.27,E,1,07,1.3,50.6,M,39.2,M,,*42
$GPRMC,071340,A,5230.73,N,1319.27,E,4.9,180.0,030308,11.2,W,A*09
$GPGGA,071341,5230.73,N,1319.27,E,1,07,1.3,50.6,M,39.2,M,,*43
$GPRMC,071341,A,5230.73,N,1319.27,E,4.7,89.0,030308,11.2,W,A*3e
$GPGGA,071342,5230.73,N,1319.27,E,1,07,1.3,50.6,M,39.2,M,,*40
$GPRMC,071342,A,5230.73,N,1319.27,E,6.7,89.0,030308,11.2,W,A*3f
$GPGGA,071343,5230.73,N,1319.28,E,1,07,1.3,50.6,M,39.2,M,,*4e
$GPRMC,071343,A,5230.73,N,1319.28,E,5.5,89.0,030308,11.2,W,A*30
$GPGGA,071344,5230.73,N,1319.28,E,1,07,1.3,50.6,M,39.2,M,,*49
$GPRMC,071344,A,5230.73,N,1319.28,E,7.1,89.0,030308,11.2,W,A*31
$GPGGA,071345,5230.73,N,1319.28,E,1,07,1.3,50.6,M,39.2,M,,*48
$GPRMC,071345,A,5230.73,N,1319.28,E,5.5,89.0,030308,11.2,W,A*36
$GPGGA,071346,5230.73,N,1319.28,E,1,07,1.3,50.6,M,39.2,M,,*4b
$GPRMC,071346,A,5230.73,N,1319.28,E,7.2,89.0,030308,11.2,W,A*30
$GPGGA,071347,5230.73,N,1319.28,E,1,07,1.3,50.6,M,39.2,M,,*4a
$GPRMC,071347,A,5230.73,N,1319.28,E,4.0,89.0,030308,11.2,W,A*30
$GPGGA,071348,5230.73,N,1319.29,E,1,07,1.3,50.6,M,39.2,M,,*44
$GPRMC,071348,A,5230.73,N,1319.29,E,5.5,89.0,030308,11.2,W,A*3a
$GPGGA,071349,5230.72,N,1319.29,E,1,07,1.3,50.6,M,39.2,M,,*44
$GPRMC,071349,A,5230.72,N,1319.29,E,8.3,180.0,030308,11.2,W,A*09
$GPGGA,071350,5230.72,N,1319.29,E,1,07,1.3,50.6,M,39.2,M,,*4c
$GPRMC,071350,A,5230.72,N,1319.29,E,nan,180.0,030308,11.2,W,A*45
$GPGGA,071351,5230.72,N,1319.3,E,1,07,1.3,50.6,M,39.2,M,,*75
$GPRMC,071351,A,5230.72,N,1319.3,E,6.7,89.0,030308,11.2,W,A*0a
$GPGGA,071352,5230.72,N,1319.3,E,1,07,1.3,50.6,M,39.2,M,,*76
$GPRMC,071352,A,5230.72,N,1319.3,E,5.8,89.0,030308,11.2,W,A*05
$GPGGA,071353,5230.72,N,1319.3,E,1,07,1.3,50.6,M,39.2,M,,*77
$GPRMC,071353,A,5230.72,N,1319.3,E,5.3,89.0,030308,11.2,W,A*0f
$GPGGA,071354,5230.72,N,1319.3,E,1,07,1.3,50.6,M,39.2,M,,*70
$GPRMC,071354,A,5230.72,N,1319.3,E,7.0,89.0,030308,11.2,W,A*09
$GPGGA,071355,5230.72,N,1319.3,E,1,07,1.3,50.6,M,39.2,M,,*71
$GPRMC,071355,A,5230.72,N,1319.3,E,6.7,89.0,030308,11.2,W,A*0e
$GPGGA,071356,5230.72,N,1319.31,E,1,07,1.3,50.6,M,39.2,M,,*43
$GPRMC,071356,A,5230.72,N,1319.31,E,6.5,89.0,030308,11.2,W,A*3e
$GPGGA,071357,5230.72,N,1319.31,E,1,07,1.3,50.6,M,39.2,M,,*42
$GPRMC,071357,A,5230.72,N,1319.31,E,9.3,89.0,030308,11.2,W,A*36
$GPGGA,071358,5230.72,N,1319.31,E,1,07,1.3,50.6,M,39.2,M,,*4d
$GPRMC,071358,A,5230.72,N,1319.31,E,6.5,89.0,030308,11.2,W,A*30
$GPGGA,071359,5230.72,N,1319.32,E,1,07,1.3,50.6,M,39.2,M,,*4f
$GPRMC,071359,A,5230.72,N,1319.32,E,6.7,89.0,030308,11.2,W,A*30
$GPGGA,071400,5230.72,N,1319.32,E,1,07,1.3,50.6,M,39.2,M,,*44
$GPRMC,071400,A,5230.72,N,1319.32,E,5.2,89.0,030308,11.2,W,A*3d
$GPGGA,071401,5230.72,N,1319.32,E,1,07,1.3,50.6,M,39.2,M,,*45
$GPRMC,071401,A,5230.72,N,1319.32,E,5.8,89.0,030308,11.2,W,A*36
$GPGGA,071402,5230.72,N,1319.33,E,1,07,1.3,50.6,M,39.2,M,,*47
$GPRMC,071402,A,5230.72,N,1319.33,E,6.7,89.0,030308,11.2,W,A*38
$GPGGA,071403,5230.72,N,1319.33,E,1,07,1.3,50.6,M,39.2,M,,*46
$GPRMC,071403,A,5230.72,N,1319.33,E,8.3,89.0,030308,11.2,W,A*33
$GPGGA,071404,5230.73,N,1319.33,E,1,07,1.3,50.6,M,39.2,M,,*40
$GPRMC,071404,A,5230.73,N,1319.33,E,10.1,89.0,030308,11.2,W,A*0e
$GPGGA,071405,5230.73,N,1319.34,E,1,07,1.3,50.6,M,39.2,M,,*46
$GPRMC,071405,A,5230.73,N,1319.34,E,8.1,89.0,030308,11.2,W,A*31
$GPGGA,071406,5230.73,N,1319.34,E,1,07,1.3,50.6,M,39.2,M,,*45
$GPRMC,071406,A,5230.73,N,1319.34,E,8.3,89.0,030308,11.2,W,A*30
$GPGGA,071407,5230.73,N,1319.34,E,1,07,1.3,50.6,M,39.2,M,,*44
$GPRMC,071407,A,5230.73,N,1319.34,E,6.7,89.0,030308,11.2,W,A*3b
$GPGGA,071408,5230.73,N,1319.34,E,1,07,1.3,50.6,M,39.2,M,,*4b
$GPRMC,071408,A,5230.73,N,1319.34,E,9.3,89.0,030308,11.2,W,A*3f
$GPGGA,071409,5230.73,N,1319.35,E,1,07,1.3,50.6,M,39.2,M,,*4b
$GPRMC,071409,A,5230.73,N,1319.35,E,5.5,89.0,030308,11.2,W,A*35
$GPGGA,071410,5230.73,N,1319.35,E,1,07,1.3,50.6,M,39.2,M,,*43
$GPRMC,071410,A,5230.73,N,1319.35,E,7.7,89.0,030308,11.2,W,A*3d
$GPGGA,071411,5230.73,N,1319.36,E,1,07,1.3,50.6,M,39.2,M,,*41
$GPRMC,071411,A,5230.73,N,1319.36,E,7.2,31.0,030308,11.2,W,A*39
$GPGGA,071412,5230.73,N,1319.36,E,1,07,1.3,50.6,M,39.2,M,,*42
$GPRMC,071412,A,5230.73,N,1319.36,E,6.7,31.0,030308,11.2,W,A*3e
$GPGGA,071413,5230.73,N,1319.36,E,1,07,1.3,50.6,M,39.2,M,,*43
$GPRMC,071413,A,5230.73,N,1319.36,E,6.7,31.0,030308,11.2,W,A*3f
$GPGGA,071414,5230.73,N,1319.36,E,1,07,1.3,50.6,M,39.2,M,,*44
$GPRMC,071414,A,5230.73,N,1319.36,E,5.8,89.0,030308,11.2,W,A*37
$GPGGA,071415,5230.73,N,1319.36,E,1,07,1.3,50.6,M,39.2,M,,*45
$GPRMC,071415,A,5230.73,N,1319.36,E,7.7,89.0,030308,11.2,W,A*3b
$GPGGA,071416,5230.74,N,1319.37,E,1,07,1.3,50.6,M,39.2,M,,*40
$GPRMC,071416,A,5230.74,N,1319.37,E,8.4,31.0,030308,11.2,W,A*31
$GPGGA,071417,5230.74,N,1319.37,E,1,07,1.3,50.6,M,39.2,M,,*41
$GPRMC,071417,A,5230.74,N,1319.37,E,7.7,31.0,030308,11.2,W,A*3c
$GPGGA,071418,5230.74,N,1319.37,E,1,07,1.3,50.6,M,39.2,M,,*4e
$GPRMC,071418,A,5230.74,N,1319.37,E,7.7,31.0,030308,11.2,W,A*33
$GPGGA,071419,5230.74,N,1319.37,E,1,07,1.3,50.6,M,39.2,M,,*4f
$GPRMC,071419,A,5230.74,N,1319.37,E,4.9,31.0,030308,11.2,W,A*3f
$GPGGA,071420,5230.74,N,1319.37,E,1,07,1.3,50.6,M,39.2,M,,*45
$GPRMC,071420,A,5230.74,N,1319.37,E,6.7,31.0,030308,11.2,W,A*39
$GPGGA,071421,5230.74,N,1319.37,E,1,07,1.3,50.6,M,39.2,M,,*44
$GPRMC,071421,A,5230.74,N,1319.37,E,nan,31.0,030308,11.2,W,A*76
$GPGGA,071422,5230.74,N,1319.37,E,1,07,1.3,50.6,M,39.2,M,,*47
$GPRMC,071422,A,5230.74,N,1319.37,E,9.2,89.0,030308,11.2,W,A*32
$GPGGA,071423,5230.75,N,1319.37,E,1,07,1.3,50.6,M,39.2,M,,*47
$GPRMC,071423,A,5230.75,N,1319.37,E,7.1,89.0,030308,11.2,W,A*3f
$GPGGA,071424,5230.75,N,1319.37,E,1,07,1.3,50.6,M,39.2,M,,*40
$GPRMC,071424,A,5230.75,N,1319.37,E,5.1,89.0,030308,11.2,W,A*3a
$GPGGA,071425,5230.75,N,1319.37,E,1,07,1.3,50.6,M,39.2,M,,*41
$GPRMC,071425,A,5230.75,N,1319.37,E,5.9,89.0,030308,11.2,W,A*33
$GPGGA,071426,5230.75,N,1319.37,E,1,07,1.3,50.6,M,39.2,M,,*42
$GPRMC,071426,A,5230.75,N,1319.37,E,5.1,89.0,030308,11.2,W,A*38
$GPGGA,071427,5230.75,N,1319.37,E,1,07,1.3,50.6,M,39.2,M,,*43
$GPRMC,071427,A,5230.75,N,1319.37,E,1.7,89.0,030308,11.2,W,A*3b
$GPGGA,071428,5230.76,N,1319.37,E,1,07,1.3,50.6,M,39.2,M,,*4f
$GPRMC,071428,A,5230.76,N,1319.37,E,2.8,89.0,030308,11.2,W,A*3b
$GPGGA,071429,5230.76,N,1319.37,E,1,07,1.3,50.6,M,39.2,M,,*4e
$GPRMC,071429,A,5230.76,N,1319.37,E,4.1,89.0,030308,11.2,W,A*35
$GPGGA,071430,5230.76,N,1319.37,E,1,07,1.3,50.6,M,39.2,M,,*46
$GPRMC,071430,A,5230.76,N,1319.37,E,2.5,89.0,030308,11.2,W,A*3f
$GPGGA,071431,5230.76,N,1319.37,E,1,07,1.3,50.6,M,39.2,M,,*47
$GPRMC,071431,A,5230.76,N,1319.37,E,1.7,89.0,030308,11.2,W,A*3f
$GPGGA,071432,5230.76,N,1319.37,E,1,07,1.3,50.6,M,39.2,M,,*44
$GPRMC,071432,A,5230.76,N,1319.37,E,5.0,89.0,030308,11.2,W,A*3f
$GPGGA,071433,5230.76,N,1319.37,E,1,07,1.3,50.6,M,39.2,M,,*45
$GPRMC,071433,A,5230.76,N,1319.37,E,4.1,89.0,030308,11.2,W,A*3e
$GPGGA,071434,5230.76,N,1319.37,E,1,07,1.3,50.6,M,39.2,M,,*42
$GPRMC,071434,A,5230.76,N,1319.37,E,4.1,89.0,030308,11.2,W,A*39
$GPGGA,071435,5230.76,N,1319.37,E,1,07,1.3,50.6,M,39.2,M,,*43
$GPRMC,071435,A,5230.76,N,1319.37,E,2.5,89.0,030308,11.2,W,A*3a
$GPGGA,071436,5230.76,N,1319.37,E,1,07,1.3,50.6,M,39.2,M,,*40
$GPRMC,071436,A,5230.76,N,1319.37,E,4.1,89.0,030308,11.2,W,A*3b
$GPGGA,071437,5230.76,N,1319.37,E,1,07,1.3,50.6,M,39.2,M,,*41
$GPRMC,071437,A,5230.76,N,1319.37,E,2.5,89.0,030308,11.2,W,A*38
$GPGGA,071438,5230.76,N,1319.37,E,1,07,1.3,50.6,M,39.2,M,,*4e
$GPRMC,071438,A,5230.76,N,1319.37,E,1.7,89.0,030308,11.2,W,A*36
$GPGGA,071439,5230.76,N,1319.37,E,1,07,1.3,50.6,M,39.2,M,,*4f
$GPRMC,071439,A,5230.76,N,1319.37,E,2.8,89.0,030308,11.2,W,A*3b
$GPGGA,071440,5230.76,N,1319.37,E,1,07,1.3,50.6,M,39.2,M,,*41
$GPRMC,071440,A,5230.76,N,1319.37,E,1.7,89.0,030308,11.2,W,A*39
$GPGGA,071441,5230.76,N,1319.37,E,1,07,1.3,50.6,M,39.2,M,,*40
$GPRMC,071441,A,5230.76,N,1319.37,E,5.1,89.0,030308,11.2,W,A*3a
$GPGGA,071442,5230.76,N,1319.37,E,1,07,1.3,50.6,M,39.2,M,,*43
$GPRMC,071442,A,5230.76,N,1319.37,E,1.7,89.0,030308,11.2,W,A*3b
$GPGGA,071443,5230.77,N,1319.37,E,1,07,1.3,50.6,M,39.2,M,,*43
$GPRMC,071443,A,5230.77,N,1319.37,E,2.8,89.0,030308,11.2,W,A*37
$GPGGA,071444,5230.77,N,1319.37,E,1,07,1.3,50.6,M,39.2,M,,*44
$GPRMC,071444,A,5230.77,N,1319.37,E,2.5,89.0,030308,11.2,W,A*3d
$GPGGA,071445,5230.77,N,1319.37,E,1,07,1.3,50.6,M,39.2,M,,*45
$GPRMC,071445,A,5230.77,N,1319.37,E,1.7,89.0,030308,11.2,W,A*3d
$GPGGA,071446,5230.77,N,1319.37,E,1,07,1.3,50.6,M,39.2,M,,*46
$GPRMC,071446,A,5230.77,N,1319.37,E,2.8,89.0,030308,11.2,W,A*32
$GPGGA,071447,5230.77,N,1319.37,E,1,07,1.3,50.6,M,39.2,M,,*47
$GPRMC,071447,A,5230.77,N,1319.37,E,1.7,89.0,030308,11.2,W,A*3f
$GPGGA,071448,5230.77,N,1319.37,E,1,07,1.3,50.6,M,39.2,M,,*48
$GPRMC,071448,A,5230.77,N,1319.37,E,2.8,89.0,030308,11.2,W,A*3c
$GPGGA,071449,5230.77,N,1319.37,E,1,07,1.3,50.6,M,39.2,M,,*49
$GPRMC,071449,A,5230.77,N,1319.37,E,1.3,89.0,030308,11.2,W,A*35
$GPGGA,071450,5230.77,N,1319.37,E,1,07,1.3,50.6,M,39.2,M,,*41
$GPRMC,071450,A,5230.77,N,1319.37,E,2.5,89.0,030308,11.2,W,A*38
$GPGGA,071451,5230.77,N,1319.37,E,1,07,1.3,50.6,M,39.2,M,,*40
$GPRMC,071451,A,5230.77,N,1319.37,E,9.8,329.0,030308,11.2,W,A*06
$GPGGA,071452,5230.77,N,1319.37,E,1,07,1.3,50.6,M,39.2,M,,*43
$GPRMC,071452,A,5230.77,N,1319.37,E,2.5,329.0,030308,11.2,W,A*03
$GPGGA,071453,5230.77,N,1319.37,E,1,07,1.3,50.6,M,39.2,M,,*42
$GPRMC,071453,A,5230.77,N,1319.37,E,3.1,329.0,030308,11.2,W,A*07
$GPGGA,071454,5230.77,N,1319.37,E,1,07,1.3,50.6,M,39.2,M,,*45
$GPRMC,071454,A,5230.77,N,1319.37,E,5.1,329.0,030308,11.2,W,A*06
$GPGGA,071455,5230.77,N,1319.37,E,1,07,1.3,50.6,M,39.2,M,,*44
$GPRMC,071455,A,5230.77,N,1319.37,E,8.5,329.0,030308,11.2,W,A*0e
$GPGGA,071456,5230.78,N,1319.36,E,1,07,1.3,50.6,M,39.2,M,,*49
$GPRMC,071456,A,5230.78,N,1319.36,E,9.8,328.0,030308,11.2,W,A*0e
$GPGGA,071457,5230.78,N,1319.36,E,1,07,1.3,50.6,M,39.2,M,,*48
$GPRMC,071457,A,5230.78,N,1319.36,E,8.4,328.0,030308,11.2,W,A*02
$GPGGA,071458,5230.78,N,1319.36,E,1,07,1.3,50.6,M,39.2,M,,*47
$GPRMC,071458,A,5230.78,N,1319.36,E,12.4,270.0,030308,11.2,W,A*3a
$GPGGA,071459,5230.79,N,1319.35,E,1,07,1.3,50.6,M,39.2,M,,*44
$GPRMC,071459,A,5230.79,N,1319.35,E,17.0,328.0,030308,11.2,W,A*34
$GPGGA,071500,5230.79,N,1319.34,E,1,07,1.3,50.6,M,39.2,M,,*48
$GPRMC,071500,A,5230.79,N,1319.34,E,12.4,270.0,030308,11.2,W,A*35
$GPGGA,071501,5230.79,N,1319.34,E,1,07,1.3,50.6,M,39.2,M,,*49
$GPRMC,071501,A,5230.79,N,1319.34,E,18.1,328.0,030308,11.2,W,A*37
$GPGGA,071502,5230.79,N,1319.33,E,1,07,1.3,50.6,M,39.2,M,,*4d
$GPRMC,071502,A,5230.79,N,1319.33,E,9.4,270.0,030308,11.2,W,A*0a
$GPGGA,071503,5230.79,N,1319.33,E,1,07,1.3,50.6,M,39.2,M,,*4c
$GPRMC,071503,A,5230.79,N,1319.33,E,10.8,270.0,030308,11.2,W,A*3f
$GPGGA,071504,5230.79,N,1319.33,E,1,07,1.3,50.6,M,39.2,M,,*4b
$GPRMC,071504,A,5230.79,N,1319.33,E,12.1,270.0,030308,11.2,W,A*33
$GPGGA,071505,5230.79,N,1319.31,E,1,07,1.3,50.6,M,39.2,M,,*48
$GPRMC,071505,A,5230.79,N,1319.31,E,18.5,270.0,030308,11.2,W,A*3e
$GPGGA,071506,5230.79,N,1319.31,E,1,07,1.3,50.6,M,39.2,M,,*4b
$GPRMC,071506,A,5230.79,N,1319.31,E,2.6,270.0,030308,11.2,W,A*05
$GPGGA,071507,5230.79,N,1319.31,E,1,07,1.3,50.6,M,39.2,M,,*4a
$GPRMC,071507,A,5230.79,N,1319.31,E,2.6,270.0,030308,11.2,W,A*04
$GPGGA,071508,5230.79,N,1319.31,E,1,07,1.3,50.6,M,39.2,M,,*45
$GPRMC,071508,A,5230.79,N,1319.31,E,3.9,270.0,030308,11.2,W,A*05
$GPGGA,071509,5230.79,N,1319.31,E,1,07,1.3,50.6,M,39.2,M,,*44
$GPRMC,071509,A,5230.79,N,1319.31,E,4.0,270.0,030308,11.2,W,A*0a
$GPGGA,071510,5230.79,N,1319.31,E,1,07,1.3,50.6,M,39.2,M,,*4c
$GPRMC,071510,A,5230.79,N,1319.31,E,5.3,270.0,030308,11.2,W,A*00
$GPGGA,071511,5230.79,N,1319.3,E,1,07,1.3,50.6,M,39.2,M,,*7c
$GPRMC,071511,A,5230.79,N,1319.3,E,5.3,270.0,030308,11.2,W,A*30
$GPGGA,071512,5230.79,N,1319.3,E,1,07,1.3,50.6,M,39.2,M,,*7f
$GPRMC,071512,A,5230.79,N,1319.3,E,5.3,270.0,030308,11.2,W,A*33
$GPGGA,071513,5230.79,N,1319.3,E,1,07,1.3,50.6,M,39.2,M,,*7e
$GPRMC,071513,A,5230.79,N,1319.3,E,3.9,270.0,030308,11.2,W,A*3e
$GPGGA,071514,5230.79,N,1319.3,E,1,07,1.3,50.6,M,39.2,M,,*79
$GPRMC,071514,A,5230.79,N,1319.3,E,4.0,270.0,030308,11.2,W,A*37
$GPGGA,071515,5230.79,N,1319.3,E,1,07,1.3,50.6,M,39.2,M,,*78
$GPRMC,071515,A,5230.79,N,1319.3,E,3.1,270.0,030308,11.2,W,A*30
$GPGGA,071516,5230.79,N,1319.3,E,1,07,1.3,50.6,M,39.2,M,,*7b
$GPRMC,071516,A,5230.79,N,1319.3,E,2.5,270.0,030308,11.2,W,A*36
$GPGGA,071517,5230.79,N,1319.3,E,1,07,1.3,50.6,M,39.2,M,,*7a
$GPRMC,071517,A,5230.79,N,1319.3,E,4.0,270.0,030308,11.2,W,A*34
$GPGGA,071518,5230.79,N,1319.3,E,1,07,1.3,50.6,M,39.2,M,,*75
$GPRMC,071518,A,5230.79,N,1319.3,E,nan,270.0,030308,11.2,W,A*70
$GPGGA,071519,5230.79,N,1319.29,E,1,07,1.3,50.6,M,39.2,M,,*4c
$GPRMC,071519,A,5230.79,N,1319.29,E,6.5,270.0,030308,11.2,W,A*05
$GPGGA,071520,5230.79,N,1319.29,E,1,07,1.3,50.6,M,39.2,M,,*46
$GPRMC,071520,A,5230.79,N,1319.29,E,6.9,270.0,030308,11.2,W,A*03
$GPGGA,071521,5230.79,N,1319.28,E,1,07,1.3,50.6,M,39.2,M,,*46
$GPRMC,071521,A,5230.79,N,1319.28,E,14.1,270.0,030308,11.2,W,A*38
$GPGGA,071522,5230.79,N,1319.28,E,1,07,1.3,50.6,M,39.2,M,,*45
$GPRMC,071522,A,5230.79,N,1319.28,E,10.1,270.0,030308,11.2,W,A*3f
$GPGGA,071523,5230.79,N,1319.28,E,1,07,1.3,50.6,M,39.2,M,,*44
$GPRMC,071523,A,5230.79,N,1319.28,E,2.6,270.0,030308,11.2,W,A*0a
$GPGGA,071524,5230.79,N,1319.28,E,1,07,1.3,50.6,M,39.2,M,,*43
$GPRMC,071524,A,5230.79,N,1319.28,E,3.1,270.0,030308,11.2,W,A*0b
$GPGGA,071525,5230.79,N,1319.27,E,1,07,1.3,50.6,M,39.2,M,,*4d
$GPRMC,071525,A,5230.79,N,1319.27,E,2.6,270.0,030308,11.2,W,A*03
$GPGGA,071526,5230.8,N,1319.27,E,1,07,1.3,50.6,M,39.2,M,,*78
$GPRMC,071526,A,5230.8,N,1319.27,E,3.6,270.0,030308,11.2,W,A*37
$GPGGA,071527,5230.8,N,1319.27,E,1,07,1.3,50.6,M,39.2,M,,*79
$GPRMC,071527,A,5230.8,N,1319.27,E,2.6,270.0,030308,11.2,W,A*37
$GPGGA,071528,5230.8,N,1319.27,E,1,07,1.3,50.6,M,39.2,M,,*76
$GPRMC,071528,A,5230.8,N,1319.27,E,2.8,270.0,030308,11.2,W,A*36
$GPGGA,071529,5230.8,N,1319.27,E,1,07,1.3,50.6,M,39.2,M,,*77
$GPRMC,071529,A,5230.8,N,1319.27,E,3.1,270.0,030308,11.2,W,A*3f
$GPGGA,071530,5230.8,N,1319.27,E,1,07,1.3,50.6,M,39.2,M,,*7f
$GPRMC,071530,A,5230.8,N,1319.27,E,14.7,270.0,030308,11.2,W,A*07
$GPGGA,071531,5230.8,N,1319.25,E,1,07,1.3,50.6,M,39.2,M,,*7c
$GPRMC,071531,A,5230.8,N,1319.25,E,38.4,298.0,030308,11.2,W,A*0f
$GPGGA,071532,5230.81,N,1319.23,E,1,07,1.3,50.6,M,39.2,M,,*48
$GPRMC,071532,A,5230.81,N,1319.23,E,49.7,298.0,030308,11.2,W,A*3e
$GPGGA,071533,5230.82,N,1319.22,E,1,07,1.3,50.6,M,39.2,M,,*4b
$GPRMC,071533,A,5230.82,N,1319.22,E,30.6,309.0,030308,11.2,W,A*3b
$GPGGA,071534,5230.82,N,1319.21,E,1,07,1.3,50.6,M,39.2,M,,*4f
$GPRMC,071534,A,5230.82,N,1319.21,E,12.5,270.0,030308,11.2,W,A*33
$GPGGA,071535,5230.82,N,1319.2,E,1,07,1.3,50.6,M,39.2,M,,*7f
$GPRMC,071535,A,5230.82,N,1319.2,E,22.1,270.0,030308,11.2,W,A*04
$GPGGA,071536,5230.82,N,1319.19,E,1,07,1.3,50.6,M,39.2,M,,*46
$GPRMC,071536,A,5230.82,N,1319.19,E,21.5,270.0,030308,11.2,W,A*3a
$GPGGA,071537,5230.82,N,1319.18,E,1,07,1.3,50.6,M,39.2,M,,*46
$GPRMC,071537,A,5230.82,N,1319.18,E,24.5,309.0,030308,11.2,W,A*30
$GPGGA,071538,5230.82,N,1319.18,E,1,07,1.3,50.6,M,39.2,M,,*49
$GPRMC,071538,A,5230.82,N,1319.18,E,18.9,270.0,030308,11.2,W,A*33
$GPGGA,071539,5230.82,N,1319.16,E,1,07,1.3,50.6,M,39.2,M,,*46
$GPRMC,071539,A,5230.82,N,1319.16,E,31.6,270.0,030308,11.2,W,A*38
$GPGGA,071540,5230.83,N,1319.14,E,1,07,1.3,50.6,M,39.2,M,,*4b
$GPRMC,071540,A,5230.83,N,1319.14,E,41.6,299.0,030308,11.2,W,A*35
$GPGGA,071541,5230.83,N,1319.13,E,1,07,1.3,50.6,M,39.2,M,,*4d
$GPRMC,071541,A,5230.83,N,1319.13,E,33.6,270.0,030308,11.2,W,A*31
$GPGGA,071542,5230.83,N,1319.12,E,1,07,1.3,50.6,M,39.2,M,,*4f
$GPRMC,071542,A,5230.83,N,1319.12,E,24.6,270.0,030308,11.2,W,A*35
$GPGGA,071543,5230.83,N,1319.1,E,1,07,1.3,50.6,M,39.2,M,,*7c
$GPRMC,071543,A,5230.83,N,1319.1,E,23.3,309.0,030308,11.2,W,A*0b
$GPGGA,071544,5230.83,N,1319.1,E,1,07,1.3,50.6,M,39.2,M,,*7b
$GPRMC,071544,A,5230.83,N,1319.1,E,21.5,270.0,030308,11.2,W,A*07
$GPGGA,071545,5230.83,N,1319.09,E,1,07,1.3,50.6,M,39.2,M,,*42
$GPRMC,071545,A,5230.83,N,1319.09,E,1.4,270.0,030308,11.2,W,A*0d
$GPGGA,071546,5230.83,N,1319.09,E,1,07,1.3,50.6,M,39.2,M,,*41
$GPRMC,071546,A,5230.83,N,1319.09,E,24.5,270.0,030308,11.2,W,A*38
$GPGGA,071547,5230.84,N,1319.07,E,1,07,1.3,50.6,M,39.2,M,,*49
$GPRMC,071547,A,5230.84,N,1319.07,E,20.9,309.0,030308,11.2,W,A*37
$GPGGA,071548,5230.84,N,1319.07,E,1,07,1.3,50.6,M,39.2,M,,*46
$GPRMC,071548,A,5230.84,N,1319.07,E,17.6,270.0,030308,11.2,W,A*3c
$GPGGA,071549,5230.84,N,1319.06,E,1,07,1.3,50.6,M,39.2,M,,*46
$GPRMC,071549,A,5230.84,N,1319.06,E,19.6,270.0,030308,11.2,W,A*32
$GPGGA,071550,5230.84,N,1319.04,E,1,07,1.3,50.6,M,39.2,M,,*4c
$GPRMC,071550,A,5230.84,N,1319.04,E,32.1,270.0,030308,11.2,W,A*36
$GPGGA,071551,5230.85,N,1319.04,E,1,07,1.3,50.6,M,39.2,M,,*4c
$GPRMC,071551,A,5230.85,N,1319.04,E,17.1,328.0,030308,11.2,W,A*3d
$GPGGA,071552,5230.85,N,1319.03,E,1,07,1.3,50.6,M,39.2,M,,*48
$GPRMC,071552,A,5230.85,N,1319.03,E,20.2,270.0,030308,11.2,W,A*32
$GPGGA,071553,5230.85,N,1319.02,E,1,07,1.3,50.6,M,39.2,M,,*48
$GPRMC,071553,A,5230.85,N,1319.02,E,15.9,270.0,030308,11.2,W,A*3f
$GPGGA,071554,5230.85,N,1319.01,E,1,07,1.3,50.6,M,39.2,M,,*4c
$GPRMC,071554,A,5230.85,N,1319.01,E,26.0,328.0,030308,11.2,W,A*3e
$GPGGA,071555,5230.86,N,1319,E,1,07,1.3,50.6,M,39.2,M,,*61
$GPRMC,071555,A,5230.86,N,1319,E,22.6,310.0,030308,11.2,W,A*1a
$GPGGA,071556,5230.86,N,1319,E,1,07,1.3,50.6,M,39.2,M,,*62
$GPRMC,071556,A,5230.86,N,1319,E,21.7,270.0,030308,11.2,W,A*1c
$GPGGA,071557,5230.86,N,1318.98,E,1,07,1.3,50.6,M,39.2,M,,*4d
$GPRMC,071557,A,5230.86,N,1318.98,E,24.5,309.0,030308,11.2,W,A*3b
$GPGGA,071558,5230.86,N,1318.98,E,1,07,1.3,50.6,M,39.2,M,,*42
$GPRMC,071558,A,5230.86,N,1318.98,E,23.6,270.0,030308,11.2,W,A*3f
$GPGGA,071559,5230.87,N,1318.95,E,1,07,1.3,50.6,M,39.2,M,,*4f
$GPRMC,071559,A,5230.87,N,1318.95,E,57.8,292.0,030308,11.2,W,A*33
$GPGGA,071600,5230.88,N,1318.93,E,1,07,1.3,50.6,M,39.2,M,,*49
$GPRMC,071600,A,5230.88,N,1318.93,E,60.9,309.0,030308,11.2,W,A*33
$GPGGA,071601,5230.88,N,1318.91,E,1,07,1.3,50.6,M,39.2,M,,*4a
$GPRMC,071601,A,5230.88,N,1318.91,E,34.9,270.0,030308,11.2,W,A*3e
$GPGGA,071602,5230.89,N,1318.88,E,1,07,1.3,50.6,M,39.2,M,,*40
$GPRMC,071602,A,5230.89,N,1318.88,E,75.6,303.0,030308,11.2,W,A*3b
$GPGGA,071603,5230.91,N,1318.85,E,1,07,1.3,50.6,M,39.2,M,,*45
$GPRMC,071603,A,5230.91,N,1318.85,E,82.2,303.0,030308,11.2,W,A*32
$GPGGA,071604,5230.91,N,1318.82,E,1,07,1.3,50.6,M,39.2,M,,*45
$GPRMC,071604,A,5230.91,N,1318.82,E,63.2,288.0,030308,11.2,W,A*3f
$GPGGA,071605,5230.92,N,1318.81,E,1,07,1.3,50.6,M,39.2,M,,*44
$GPRMC,071605,A,5230.92,N,1318.81,E,29.4,309.0,030308,11.2,W,A*3e
$GPGGA,071606,5230.97,N,1318.63,E,1,07,1.3,50.6,M,39.2,M,,*4e
$GPRMC,071606,A,5230.97,N,1318.63,E,388.8,296.0,030308,11.2,W,A*07
$GPGGA,071607,5231.02,N,1318.49,E,1,07,1.3,50.6,M,39.2,M,,*4a
$GPRMC,071607,A,5231.02,N,1318.49,E,356.1,298.0,030308,11.2,W,A*07
$GPGGA,071608,5231.03,N,1318.48,E,1,07,1.3,50.6,M,39.2,M,,*45
$GPRMC,071608,A,5231.03,N,1318.48,E,23.0,329.0,030308,11.2,W,A*33
$GPGGA,071609,5231.03,N,1318.47,E,1,07,1.3,50.6,M,39.2,M,,*4b
$GPRMC,071609,A,5231.03,N,1318.47,E,8.8,270.0,030308,11.2,W,A*01
$GPGGA,071610,5231.03,N,1318.46,E,1,07,1.3,50.6,M,39.2,M,,*42
$GPRMC,071610,A,5231.03,N,1318.46,E,33.8,270.0,030308,11.2,W,A*30
$GPGGA,071611,5231.03,N,1318.46,E,1,07,1.3,50.6,M,39.2,M,,*43
$GPRMC,071611,A,5231.03,N,1318.46,E,15.9,328.0,030308,11.2,W,A*38
$GPGGA,071612,5231.03,N,1318.45,E,1,07,1.3,50.6,M,39.2,M,,*43
$GPRMC,071612,A,5231.03,N,1318.45,E,11.3,270.0,030308,11.2,W,A*3a
$GPGGA,071613,5231.03,N,1318.44,E,1,07,1.3,50.6,M,39.2,M,,*43
$GPRMC,071613,A,5231.03,N,1318.44,E,11.4,270.0,030308,11.2,W,A*3d
$GPGGA,071614,5231.04,N,1318.44,E,1,07,1.3,50.6,M,39.2,M,,*43
$GPRMC,071614,A,5231.04,N,1318.44,E,13.5,328.0,030308,11.2,W,A*32
$GPGGA,071615,5231.04,N,1318.44,E,1,07,1.3,50.6,M,39.2,M,,*42
$GPRMC,071615,A,5231.04,N,1318.44,E,10.9,328.0,030308,11.2,W,A*3c
$GPGGA,071616,5231.04,N,1318.43,E,1,07,1.3,50.6,M,39.2,M,,*46
$GPRMC,071616,A,5231.04,N,1318.43,E,13.5,270.0,030308,11.2,W,A*3b
$GPGGA,071617,5231.04,N,1318.42,E,1,07,1.3,50.6,M,39.2,M,,*46
$GPRMC,071617,A,5231.04,N,1318.42,E,21.4,309.0,030308,11.2,W,A*34
$GPGGA,071618,5231.04,N,1318.41,E,1,07,1.3,50.6,M,39.2,M,,*4a
$GPRMC,071618,A,5231.04,N,1318.41,E,34.1,270.0,030308,11.2,W,A*36
$GPGGA,071619,5231.05,N,1318.4,E,1,07,1.3,50.6,M,39.2,M,,*7b
$GPRMC,071619,A,5231.05,N,1318.4,E,20.2,329.0,030308,11.2,W,A*0c
$GPGGA,071620,5231.06,N,1318.38,E,1,07,1.3,50.6,M,39.2,M,,*4d
$GPRMC,071620,A,5231.06,N,1318.38,E,34.9,298.0,030308,11.2,W,A*3f
$GPGGA,071621,5231.06,N,1318.37,E,1,07,1.3,50.6,M,39.2,M,,*43
$GPRMC,071621,A,5231.06,N,1318.37,E,54.3,298.0,030308,11.2,W,A*3d
$GPGGA,071622,5231.07,N,1318.34,E,1,07,1.3,50.6,M,39.2,M,,*42
$GPRMC,071622,A,5231.07,N,1318.34,E,51.9,292.0,030308,11.2,W,A*39
$GPGGA,071623,5231.07,N,1318.34,E,1,07,1.3,50.6,M,39.2,M,,*43
$GPRMC,071623,A,5231.07,N,1318.34,E,8.9,270.0,030308,11.2,W,A*08
$GPGGA,071624,5231.07,N,1318.34,E,1,07,1.3,50.6,M,39.2,M,,*44
$GPRMC,071624,A,5231.07,N,1318.34,E,10.1,270.0,030308,11.2,W,A*3e
$GPGGA,071625,5231.07,N,1318.33,E,1,07,1.3,50.6,M,39.2,M,,*42
$GPRMC,071625,A,5231.07,N,1318.33,E,14.1,270.0,030308,11.2,W,A*3c
$GPGGA,071626,5231.07,N,1318.32,E,1,07,1.3,50.6,M,39.2,M,,*40
$GPRMC,071626,A,5231.07,N,1318.32,E,14.7,328.0,030308,11.2,W,A*34
$GPGGA,071627,5231.07,N,1318.32,E,1,07,1.3,50.6,M,39.2,M,,*41
$GPRMC,071627,A,5231.07,N,1318.32,E,15.6,270.0,030308,11.2,W,A*39
$GPGGA,071628,5231.08,N,1318.29,E,1,07,1.3,50.6,M,39.2,M,,*4b
$GPRMC,071628,A,5231.08,N,1318.29,E,53.1,292.0,030308,11.2,W,A*3a
$GPGGA,071629,5231.09,N,1318.26,E,1,07,1.3,50.6,M,39.2,M,,*44
$GPRMC,071629,A,5231.09,N,1318.26,E,72.1,303.0,030308,11.2,W,A*3f
$GPGGA,071630,5231.13,N,1318.14,E,1,07,1.3,50.6,M,39.2,M,,*46
$GPRMC,071630,A,5231.13,N,1318.14,E,311.2,295.0,030308,11.2,W,A*06
$GPGGA,071631,5231.15,N,1318.08,E,1,07,1.3,50.6,M,39.2,M,,*4c
$GPRMC,071631,A,5231.15,N,1318.08,E,148.7,303.0,030308,11.2,W,A*09
$GPGGA,071632,5231.16,N,1318.05,E,1,07,1.3,50.6,M,39.2,M,,*41
$GPRMC,071632,A,5231.16,N,1318.05,E,73.3,288.0,030308,11.2,W,A*3b
$GPGGA,071633,5231.17,N,1318.01,E,1,07,1.3,50.6,M,39.2,M,,*45
$GPRMC,071633,A,5231.17,N,1318.01,E,101.1,298.0,030308,11.2,W,A*08
$GPGGA,071634,5231.18,N,1318,E,1,07,1.3,50.6,M,39.2,M,,*62
$GPRMC,071634,A,5231.18,N,1318,E,26.0,309.0,030308,11.2,W,A*13
$GPGGA,071635,5231.18,N,1317.99,E,1,07,1.3,50.6,M,39.2,M,,*42
$GPRMC,071635,A,5231.18,N,1317.99,E,18.3,270.0,030308,11.2,W,A*32
$GPGGA,071636,5231.18,N,1317.99,E,1,07,1.3,50.6,M,39.2,M,,*41
$GPRMC,071636,A,5231.18,N,1317.99,E,11.7,270.0,030308,11.2,W,A*3c
$GPGGA,071637,5231.18,N,1317.98,E,1,07,1.3,50.6,M,39.2,M,,*41
$GPRMC,071637,A,5231.18,N,1317.98,E,16.4,328.0,030308,11.2,W,A*34
$GPGGA,071638,5231.18,N,1317.98,E,1,07,1.3,50.6,M,39.2,M,,*4e
$GPRMC,071638,A,5231.18,N,1317.98,E,nan,328.0,030308,11.2,W,A*47
$GPGGA,071639,5231.19,N,1317.98,E,1,07,1.3,50.6,M,39.2,M,,*4e
$GPRMC,071639,A,5231.19,N,1317.98,E,32.4,328.0,030308,11.2,W,A*3d
$GPGGA,071640,5231.2,N,1317.98,E,1,07,1.3,50.6,M,39.2,M,,*7a
$GPRMC,071640,A,5231.2,N,1317.98,E,48.2,328.0,030308,11.2,W,A*02
$GPGGA,071641,5231.21,N,1317.98,E,1,07,1.3,50.6,M,39.2,M,,*4a
$GPRMC,071641,A,5231.21,N,1317.98,E,34.8,328.0,030308,11.2,W,A*33
$GPGGA,071642,5231.22,N,1317.98,E,1,07,1.3,50.6,M,39.2,M,,*4a
$GPRMC,071642,A,5231.22,N,1317.98,E,32.3,328.0,030308,11.2,W,A*3e
$GPGGA,071643,5231.22,N,1317.97,E,1,07,1.3,50.6,M,39.2,M,,*44
$GPRMC,071643,A,5231.22,N,1317.97,E,14.9,328.0,030308,11.2,W,A*3e
$GPGGA,071644,5231.23,N,1317.97,E,1,07,1.3,50.6,M,39.2,M,,*42
$GPRMC,071644,A,5231.23,N,1317.97,E,15.7,328.0,030308,11.2,W,A*37
$GPGGA,071645,5231.24,N,1317.97,E,1,07,1.3,50.6,M,39.2,M,,*44
$GPRMC,071645,A,5231.24,N,1317.97,E,17.4,328.0,030308,11.2,W,A*30
$GPGGA,071646,5231.24,N,1317.97,E,1,07,1.3,50.6,M,39.2,M,,*47
$GPRMC,071646,A,5231.24,N,1317.97,E,12.4,328.0,030308,11.2,W,A*36
$GPGGA,071647,5231.24,N,1317.97,E,1,07,1.3,50.6,M,39.2,M,,*46
$GPRMC,071647,A,5231.24,N,1317.97,E,13.3,328.0,030308,11.2,W,A*31
$GPGGA,071648,5231.24,N,1317.97,E,1,07,1.3,50.6,M,39.2,M,,*49
$GPRMC,071648,A,5231.24,N,1317.97,E,10.8,328.0,030308,11.2,W,A*36
$GPGGA,071649,5231.25,N,1317.97,E,1,07,1.3,50.6,M,39.2,M,,*49
$GPRMC,071649,A,5231.25,N,1317.97,E,10.8,328.0,030308,11.2,W,A*36
$GPGGA,071650,5231.25,N,1317.98,E,1,07,1.3,50.6,M,39.2,M,,*4e
$GPRMC,071650,A,5231.25,N,1317.98,E,18.1,31.0,030308,11.2,W,A*0b
$GPGGA,071651,5231.25,N,1317.98,E,1,07,1.3,50.6,M,39.2,M,,*4f
$GPRMC,071651,A,5231.25,N,1317.98,E,18.1,31.0,030308,11.2,W,A*0a
$GPGGA,071652,5231.27,N,1317.98,E,1,07,1.3,50.6,M,39.2,M,,*4e
$GPRMC,071652,A,5231.27,N,1317.98,E,37.1,17.0,030308,11.2,W,A*02
$GPGGA,071653,5231.27,N,1317.99,E,1,07,1.3,50.6,M,39.2,M,,*4e
$GPRMC,071653,A,5231.27,N,1317.99,E,30.0,31.0,030308,11.2,W,A*00
$GPGGA,071654,5231.28,N,1317.99,E,1,07,1.3,50.6,M,39.2,M,,*46
$GPRMC,071654,A,5231.28,N,1317.99,E,28.0,16.0,030308,11.2,W,A*04
$GPGGA,071655,5231.28,N,1317.99,E,1,07,1.3,50.6,M,39.2,M,,*47
$GPRMC,071655,A,5231.28,N,1317.99,E,0,16.0,030308,11.2,W,A*21
$GPGGA,071656,5231.28,N,1317.99,E,1,07,1.3,50.6,M,39.2,M,,*44
$GPRMC,071656,A,5231.28,N,1317.99,E,4.4,16.0,030308,11.2,W,A*3c
$GPGGA,071657,5231.28,N,1317.99,E,1,07,1.3,50.6,M,39.2,M,,*45
$GPRMC,071657,A,5231.28,N,1317.99,E,4.3,16.0,030308,11.2,W,A*3a
$GPGGA,071658,5231.3,N,1318,E,1,07,1.3,50.6,M,39.2,M,,*52
$GPRMC,071658,A,5231.3,N,1318,E,53.2,17.0,030308,11.2,W,A*1f
$GPGGA,071659,5231.3,N,1318,E,1,07,1.3,50.6,M,39.2,M,,*53
$GPRMC,071659,A,5231.3,N,1318,E,8.4,17.0,030308,11.2,W,A*26
$GPGGA,071700,5231.3,N,1318,E,1,07,1.3,50.6,M,39.2,M,,*5e
$GPRMC,071700,A,5231.3,N,1318,E,6.7,17.0,030308,11.2,W,A*26
$GPGGA,071701,5231.31,N,1318,E,1,07,1.3,50.6,M,39.2,M,,*6e
$GPRMC,071701,A,5231.31,N,1318,E,14.9,17.0,030308,11.2,W,A*2b
$GPGGA,071702,5231.33,N,1318.02,E,1,07,1.3,50.6,M,39.2,M,,*43
$GPRMC,071702,A,5231.33,N,1318.02,E,77.5,31.0,030308,11.2,W,A*0b
$GPGGA,071703,5231.33,N,1318.02,E,1,07,1.3,50.6,M,39.2,M,,*42
$GPRMC,071703,A,5231.33,N,1318.02,E,1.7,31.0,030308,11.2,W,A*39
$GPGGA,071704,5231.33,N,1318.02,E,1,07,1.3,50.6,M,39.2,M,,*45
$GPRMC,071704,A,5231.33,N,1318.02,E,28.0,31.0,030308,11.2,W,A*02
$GPGGA,071705,5231.35,N,1318.02,E,1,07,1.3,50.6,M,39.2,M,,*42
$GPRMC,071705,A,5231.35,N,1318.02,E,53.6,11.0,030308,11.2,W,A*0d
$GPGGA,071706,5231.35,N,1318.02,E,1,07,1.3,50.6,M,39.2,M,,*41
$GPRMC,071706,A,5231.35,N,1318.02,E,6.6,11.0,030308,11.2,W,A*3e
$GPGGA,071707,5231.35,N,1318.02,E,1,07,1.3,50.6,M,39.2,M,,*40
$GPRMC,071707,A,5231.35,N,1318.02,E,4.3,11.0,030308,11.2,W,A*38
$GPGGA,071708,5231.35,N,1318.02,E,1,07,1.3,50.6,M,39.2,M,,*4f
$GPRMC,071708,A,5231.35,N,1318.02,E,6.6,11.0,030308,11.2,W,A*30
$GPGGA,071709,5231.35,N,1318.02,E,1,07,1.3,50.6,M,39.2,M,,*4e
$GPRMC,071709,A,5231.35,N,1318.02,E,0,11.0,030308,11.2,W,A*2f
$GPGGA,071710,5231.36,N,1318.02,E,1,07,1.3,50.6,M,39.2,M,,*45
$GPRMC,071710,A,5231.36,N,1318.02,E,9.8,11.0,030308,11.2,W,A*3b
$GPGGA,071711,5231.36,N,1318.02,E,1,07,1.3,50.6,M,39.2,M,,*44
$GPRMC,071711,A,5231.36,N,1318.02,E,5.8,11.0,030308,11.2,W,A*36
$GPGGA,071712,5231.36,N,1318.02,E,1,07,1.3,50.6,M,39.2,M,,*47
$GPRMC,071712,A,5231.36,N,1318.02,E,10.5,270.0,030308,11.2,W,A*39
$GPGGA,071713,5231.37,N,1318.01,E,1,07,1.3,50.6,M,39.2,M,,*44
$GPRMC,071713,A,5231.37,N,1318.01,E,45.1,329.0,030308,11.2,W,A*33
$GPGGA,071714,5231.37,N,1317.99,E,1,07,1.3,50.6,M,39.2,M,,*4d
$GPRMC,071714,A,5231.37,N,1317.99,E,33.2,309.0,030308,11.2,W,A*3a
$GPGGA,071715,5231.38,N,1317.99,E,1,07,1.3,50.6,M,39.2,M,,*43
$GPRMC,071715,A,5231.38,N,1317.99,E,11.3,309.0,030308,11.2,W,A*35
$GPGGA,071716,5231.4,N,1317.97,E,1,07,1.3,50.6,M,39.2,M,,*71
$GPRMC,071716,A,5231.4,N,1317.97,E,91.1,321.0,030308,11.2,W,A*07
$GPGGA,071717,5231.42,N,1317.95,E,1,07,1.3,50.6,M,39.2,M,,*40
$GPRMC,071717,A,5231.42,N,1317.95,E,89.6,321.0,030308,11.2,W,A*38
$GPGGA,071718,5231.45,N,1317.9,E,1,07,1.3,50.6,M,39.2,M,,*7d
$GPRMC,071718,A,5231.45,N,1317.9,E,155.6,324.0,030308,11.2,W,A*30
$GPGGA,071719,5231.46,N,1317.9,E,1,07,1.3,50.6,M,39.2,M,,*7f
$GPRMC,071719,A,5231.46,N,1317.9,E,19.4,328.0,030308,11.2,W,A*05
$GPGGA,071720,5231.46,N,1317.9,E,1,07,1.3,50.6,M,39.2,M,,*75
$GPRMC,071720,A,5231.46,N,1317.9,E,25.6,328.0,030308,11.2,W,A*02
$GPGGA,071721,5231.48,N,1317.89,E,1,07,1.3,50.6,M,39.2,M,,*42
$GPRMC,071721,A,5231.48,N,1317.89,E,43.0,329.0,030308,11.2,W,A*32
$GPGGA,071722,5231.49,N,1317.87,E,1,07,1.3,50.6,M,39.2,M,,*4e
$GPRMC,071722,A,5231.49,N,1317.87,E,65.0,337.0,030308,11.2,W,A*35
$GPGGA,071723,5231.5,N,1317.87,E,1,07,1.3,50.6,M,39.2,M,,*77
$GPRMC,071723,A,5231.5,N,1317.87,E,37.8,337.0,030308,11.2,W,A*03
$GPGGA,071724,5231.52,N,1317.86,E,1,07,1.3,50.6,M,39.2,M,,*43
$GPRMC,071724,A,5231.52,N,1317.86,E,91.0,342.0,030308,11.2,W,A*31
$GPGGA,071725,5231.53,N,1317.86,E,1,07,1.3,50.6,M,39.2,M,,*43
$GPRMC,071725,A,5231.53,N,1317.86,E,21.6,342.0,030308,11.2,W,A*3c
$GPGGA,071726,5231.59,N,1317.84,E,1,07,1.3,50.6,M,39.2,M,,*48
$GPRMC,071726,A,5231.59,N,1317.84,E,214.9,349.0,030308,11.2,W,A*07
$GPGGA,071727,5231.67,N,1317.82,E,1,07,1.3,50.6,M,39.2,M,,*42
$GPRMC,071727,A,5231.67,N,1317.82,E,280.1,349.0,030308,11.2,W,A*08
$GPGGA,071728,5231.71,N,1317.81,E,1,07,1.3,50.6,M,39.2,M,,*49
$GPRMC,071728,A,5231.71,N,1317.81,E,156.5,350.0,030308,11.2,W,A*07
$GPGGA,071729,5231.72,N,1317.81,E,1,07,1.3,50.6,M,39.2,M,,*4b
$GPRMC,071729,A,5231.72,N,1317.81,E,20.2,350.0,030308,11.2,W,A*32
$GPGGA,071730,5231.73,N,1317.8,E,1,07,1.3,50.6,M,39.2,M,,*73
$GPRMC,071730,A,5231.73,N,1317.8,E,59.3,348.0,030308,11.2,W,A*0c
$GPGGA,071731,5231.75,N,1317.79,E,1,07,1.3,50.6,M,39.2,M,,*42
$GPRMC,071731,A,5231.75,N,1317.79,E,51.3,328.0,030308,11.2,W,A*33
$GPGGA,071732,5231.75,N,1317.79,E,1,07,1.3,50.6,M,39.2,M,,*41
$GPRMC,071732,A,5231.75,N,1317.79,E,27.2,328.0,030308,11.2,W,A*30
$GPGGA,071733,5231.76,N,1317.78,E,1,07,1.3,50.6,M,39.2,M,,*42
$GPRMC,071733,A,5231.76,N,1317.78,E,30.8,328.0,030308,11.2,W,A*3f
$GPGGA,071734,5231.78,N,1317.78,E,1,07,1.3,50.6,M,39.2,M,,*4b
$GPRMC,071734,A,5231.78,N,1317.78,E,57.7,348.0,030308,11.2,W,A*3e
$GPGGA,071735,5231.78,N,1317.78,E,1,07,1.3,50.6,M,39.2,M,,*4a
$GPRMC,071735,A,5231.78,N,1317.78,E,7.1,348.0,030308,11.2,W,A*0c
$GPGGA,071736,5231.82,N,1317.76,E,1,07,1.3,50.6,M,39.2,M,,*42
$GPRMC,071736,A,5231.82,N,1317.76,E,180.5,347.0,030308,11.2,W,A*01
$GPGGA,071737,5231.84,N,1317.75,E,1,07,1.3,50.6,M,39.2,M,,*46
$GPRMC,071737,A,5231.84,N,1317.75,E,41.5,343.0,030308,11.2,W,A*3d
$GPGGA,071738,5231.85,N,1317.75,E,1,07,1.3,50.6,M,39.2,M,,*48
$GPRMC,071738,A,5231.85,N,1317.75,E,64.7,348.0,030308,11.2,W,A*3d
$GPGGA,071739,5231.87,N,1317.74,E,1,07,1.3,50.6,M,39.2,M,,*4a
$GPRMC,071739,A,5231.87,N,1317.74,E,63.8,348.0,030308,11.2,W,A*37
$GPGGA,071740,5231.9,N,1317.72,E,1,07,1.3,50.6,M,39.2,M,,*74
$GPRMC,071740,A,5231.9,N,1317.72,E,109.9,339.0,030308,11.2,W,A*33
$GPGGA,071741,5231.92,N,1317.71,E,1,07,1.3,50.6,M,39.2,M,,*44
$GPRMC,071741,A,5231.92,N,1317.71,E,63.2,338.0,030308,11.2,W,A*34
$GPGGA,071742,5231.94,N,1317.7,E,1,07,1.3,50.6,M,39.2,M,,*70
$GPRMC,071742,A,5231.94,N,1317.7,E,77.7,337.0,030308,11.2,W,A*0f
$GPGGA,071743,5231.94,N,1317.69,E,1,07,1.3,50.6,M,39.2,M,,*49
$GPRMC,071743,A,5231.94,N,1317.69,E,25.2,328.0,030308,11.2,W,A*3a
$GPGGA,071744,5231.94,N,1317.69,E,1,07,1.3,50.6,M,39.2,M,,*4e
$GPRMC,071744,A,5231.94,N,1317.69,E,4.9,328.0,030308,11.2,W,A*05
$GPGGA,071745,5231.97,N,1317.68,E,1,07,1.3,50.6,M,39.2,M,,*4d
